Country,Province,City,Longitude,Latitude,ConfirmedCount,DeadCount,CuredCount,LastUpdateTime
US,South Carolina,Abbeville,-82.46170658,34.22333378,3,0,0,2020-03-26 23:48:35
US,Louisiana,Acadia,-92.41419698,30.2950649,3,0,0,2020-03-26 23:48:35
US,Virginia,Accomack,-75.63234615,37.76707161,2,0,0,2020-03-26 23:48:35
US,Idaho,Ada,-116.24155159999998,43.4526575,39,0,0,2020-03-26 23:48:35
US,Iowa,Adair,-94.47105874,41.33075609,1,0,0,2020-03-26 23:48:35
US,Kentucky,Adair,-85.28129668,37.10459774,0,0,0,2020-03-26 23:48:35
US,Missouri,Adair,-92.60078167,40.19058551,1,0,0,2020-03-26 23:48:35
US,Oklahoma,Adair,-94.65859267,35.88494195,2,0,0,2020-03-26 23:48:35
US,Colorado,Adams,-104.3362578,39.87432092,50,0,0,2020-03-26 23:48:35
US,Idaho,Adams,-116.4545247,44.89333571,0,0,0,2020-03-26 23:48:35
US,Illinois,Adams,-91.18786813,39.98815591,1,0,0,2020-03-26 23:48:35
US,Indiana,Adams,-84.93671406,40.7457653,1,0,0,2020-03-26 23:48:35
US,Iowa,Adams,-94.69932645,41.02903567,0,0,0,2020-03-26 23:48:35
US,Mississippi,Adams,-91.35326037,31.47669768,3,0,0,2020-03-26 23:48:35
US,Nebraska,Adams,-98.50117804,40.52449420000001,1,0,0,2020-03-26 23:48:35
US,North Dakota,Adams,-102.5285397,46.09686891,0,0,0,2020-03-26 23:48:35
US,Ohio,Adams,-83.4718964,38.84541072,0,0,0,2020-03-26 23:48:35
US,Pennsylvania,Adams,-77.21610347,39.87140411,7,0,0,2020-03-26 23:48:35
US,Washington,Adams,-118.5601734,46.98299757,3,0,0,2020-03-26 23:48:35
US,Wisconsin,Adams,-89.76782777,43.96974651,0,0,0,2020-03-26 23:48:35
US,Vermont,Addison,-73.14130877,44.03217337,12,0,0,2020-03-26 23:48:35
US,South Carolina,Aiken,-81.63645384,33.54338026,2,0,0,2020-03-26 23:48:35
US,Minnesota,Aitkin,-93.4116826,46.60962049,0,0,0,2020-03-26 23:48:35
US,Florida,Alachua,-82.35928158,29.67866525,49,0,0,2020-03-26 23:48:35
US,North Carolina,Alamance,-79.39976137,36.0434701,4,0,0,2020-03-26 23:48:35
US,California,Alameda,-121.8929271,37.64629437,178,4,0,2020-03-26 23:48:35
US,Colorado,Alamosa,-105.7885451,37.57250606,0,0,0,2020-03-26 23:48:35
US,New York,Albany,-73.97723916,42.60060306,171,0,0,2020-03-26 23:48:35
US,Wyoming,Albany,-105.7235415,41.65498705,1,0,0,2020-03-26 23:48:35
US,Virginia,Albemarle,-78.55481085,38.02080697,6,0,0,2020-03-26 23:48:35
US,Michigan,Alcona,-83.59507875,44.6846864,0,0,0,2020-03-26 23:48:35
US,Mississippi,Alcorn,-88.57996173,34.88084463,0,0,0,2020-03-26 23:48:35
US,Alaska,Aleutians East,-161.9722021,55.32222414,0,0,0,2020-03-26 23:48:35
US,Alaska,Aleutians West,-110.4086433,52.72541116,0,0,0,2020-03-26 23:48:35
US,Illinois,Alexander,-89.32910838,37.18049267,0,0,0,2020-03-26 23:48:35
US,North Carolina,Alexander,-81.17751948,35.922379600000006,0,0,0,2020-03-26 23:48:35
US,Virginia,Alexandria,-77.08183073,38.814003,14,0,0,2020-03-26 23:48:35
US,Oklahoma,Alfalfa,-98.32408495,36.73090616,0,0,0,2020-03-26 23:48:35
US,Michigan,Alger,-86.60260122,46.41292944,0,0,0,2020-03-26 23:48:35
US,Iowa,Allamakee,-91.37860922,43.28383218,7,0,0,2020-03-26 23:48:35
US,Michigan,Allegan,-85.89102866,42.59147037,1,0,0,2020-03-26 23:48:35
US,Maryland,Allegany,-78.69280486,39.62357628,0,0,0,2020-03-26 23:48:35
US,New York,Allegany,-78.02750466,42.25748406,2,0,0,2020-03-26 23:48:35
US,North Carolina,Alleghany,-81.12857041,36.49360862,0,0,0,2020-03-26 23:48:35
US,Virginia,Alleghany,-80.00222498,37.78636074,0,0,0,2020-03-26 23:48:35
US,Pennsylvania,Allegheny,-79.98167747,40.46809875,133,2,0,2020-03-26 23:48:35
US,Indiana,Allen,-85.06800636,41.09194313,8,1,0,2020-03-26 23:48:35
US,Kansas,Allen,-95.30030847,37.88582951,0,0,0,2020-03-26 23:48:35
US,Kentucky,Allen,-86.19457544,36.75197631,1,0,0,2020-03-26 23:48:35
US,Louisiana,Allen,-92.82442028,30.65385745,5,0,0,2020-03-26 23:48:35
US,Ohio,Allen,-84.10802343,40.77285242,0,0,0,2020-03-26 23:48:35
US,South Carolina,Allendale,-81.35321066,32.98837386,0,0,0,2020-03-26 23:48:35
US,Michigan,Alpena,-83.62212411,45.03477666,0,0,0,2020-03-26 23:48:35
US,California,Alpine,-119.8223594,38.59678594,0,0,0,2020-03-26 23:48:35
US,California,Amador,-120.65696,38.44583082,2,0,0,2020-03-26 23:48:35
US,Virginia,Amelia,-77.98584649,37.34081025,1,0,0,2020-03-26 23:48:35
US,Virginia,Amherst,-79.14548696,37.60308293,1,0,0,2020-03-26 23:48:35
US,Mississippi,Amite,-90.80501621,31.17467303,1,0,0,2020-03-26 23:48:35
US,Alaska,Anchorage,-149.14269860000005,61.14998174,28,0,0,2020-03-26 23:48:35
US,Kansas,Anderson,-95.29272815,38.21413251,0,0,0,2020-03-26 23:48:35
US,Kentucky,Anderson,-84.99171713,38.00671029,2,1,0,2020-03-26 23:48:35
US,South Carolina,Anderson,-82.63959517,34.51828081,19,0,0,2020-03-26 23:48:35
US,Tennessee,Anderson,-84.19965764,36.12684348,3,0,0,2020-03-26 23:48:35
US,Texas,Anderson,-95.65354823,31.81534745,0,0,0,2020-03-26 23:48:35
US,Missouri,Andrew,-94.80163024,39.98492163,0,0,0,2020-03-26 23:48:35
US,Texas,Andrews,-102.6376548,32.30468633,0,0,0,2020-03-26 23:48:35
US,Maine,Androscoggin,-70.20380627,44.1664747,5,0,0,2020-03-26 23:48:35
US,Texas,Angelina,-94.60901487,31.25457347,1,0,0,2020-03-26 23:48:35
US,Maryland,Anne Arundel,-76.60329337,39.00670238,41,0,0,2020-03-26 23:48:35
US,Minnesota,Anoka,-93.24604565,45.27476015,8,0,0,2020-03-26 23:48:35
US,North Carolina,Anson,-80.09953279,34.97403241,0,0,0,2020-03-26 23:48:35
US,Nebraska,Antelope,-98.0666283,42.17695516,0,0,0,2020-03-26 23:48:35
US,Michigan,Antrim,-85.15503082,44.99690221,0,0,0,2020-03-26 23:48:35
US,Arizona,Apache,-109.4892383,35.39465006,9,0,0,2020-03-26 23:48:35
US,Iowa,Appanoose,-92.86865906,40.74324454,1,0,0,2020-03-26 23:48:35
US,Georgia,Appling,-82.28909114,31.74847232,0,0,0,2020-03-26 23:48:35
US,Virginia,Appomattox,-78.81340003,37.37569884,0,0,0,2020-03-26 23:48:35
US,Texas,Aransas,-96.9995047,28.10556197,0,0,0,2020-03-26 23:48:35
US,Colorado,Arapahoe,-104.3353617,39.64977461,119,0,0,2020-03-26 23:48:35
US,Texas,Archer,-98.68754589,33.61569967,0,0,0,2020-03-26 23:48:35
US,Colorado,Archuleta,-107.0476867,37.19474156,0,0,0,2020-03-26 23:48:35
US,Michigan,Arenac,-83.89277559,44.0636262,0,0,0,2020-03-26 23:48:35
US,Arkansas,Arkansas,-91.37277296,34.29145151,0,0,0,2020-03-26 23:48:35
US,Virginia,Arlington,-77.10139853,38.8767675,54,0,0,2020-03-26 23:48:35
US,Pennsylvania,Armstrong,-79.46290811,40.81665618,1,0,0,2020-03-26 23:48:35
US,Texas,Armstrong,-101.3574874,34.96507426,0,0,0,2020-03-26 23:48:35
US,Maine,Aroostook,-68.59841248,46.65926321,0,0,0,2020-03-26 23:48:35
US,Nebraska,Arthur,-101.6959559,41.56896142,0,0,0,2020-03-26 23:48:35
US,Louisiana,Ascension,-90.91328409999998,30.20406249,91,1,0,2020-03-26 23:48:35
US,North Carolina,Ashe,-81.49862729,36.43296207,0,0,0,2020-03-26 23:48:35
US,Ohio,Ashland,-82.27280781,40.84772277,1,0,0,2020-03-26 23:48:35
US,Wisconsin,Ashland,-90.67837132,46.31956891,0,0,0,2020-03-26 23:48:35
US,Arkansas,Ashley,-91.7698471,33.19153461,0,0,0,2020-03-26 23:48:35
US,Ohio,Ashtabula,-80.74830218,41.70860332,3,0,0,2020-03-26 23:48:35
US,Washington,Asotin,-117.2022851,46.18894415,0,0,0,2020-03-26 23:48:35
US,Louisiana,Assumption,-91.06461642,29.89946234,5,0,0,2020-03-26 23:48:35
US,Texas,Atascosa,-98.52730485,28.89333001,2,0,0,2020-03-26 23:48:35
US,Kansas,Atchison,-95.30870026,39.53185661,0,0,0,2020-03-26 23:48:35
US,Missouri,Atchison,-95.42970639,40.43238737,1,0,0,2020-03-26 23:48:35
US,Ohio,Athens,-82.04278644,39.33425634,1,0,0,2020-03-26 23:48:35
US,Georgia,Atkinson,-82.87545866,31.29633502,0,0,0,2020-03-26 23:48:35
US,New Jersey,Atlantic,-74.65848483,39.47538693,10,0,0,2020-03-26 23:48:35
US,Oklahoma,Atoka,-96.03802487,34.37366573,0,0,0,2020-03-26 23:48:35
US,Mississippi,Attala,-89.57838564,33.08658803,7,0,0,2020-03-26 23:48:35
US,Missouri,Audrain,-91.84242683,39.215877,0,0,0,2020-03-26 23:48:35
US,Iowa,Audubon,-94.90581859,41.6844628,0,0,0,2020-03-26 23:48:35
US,Ohio,Auglaize,-84.22421429999999,40.55998859,0,0,0,2020-03-26 23:48:35
US,Virginia,Augusta,-79.12461614,38.16404586,0,0,0,2020-03-26 23:48:35
US,South Dakota,Aurora,-98.56050467,43.71757685,0,0,0,2020-03-26 23:48:35
US,Texas,Austin,-96.27736949,29.88548725,1,0,0,2020-03-26 23:48:35
US,Alabama,Autauga,-86.64408227,32.53952745,6,0,0,2020-03-26 23:48:35
US,North Carolina,Avery,-81.92308483,36.07569796,0,0,0,2020-03-26 23:48:35
US,Louisiana,Avoyelles,-92.00079449,31.07796211,7,0,0,2020-03-26 23:48:35
US,Colorado,Baca,-102.5603223,37.31940883,0,0,0,2020-03-26 23:48:35
US,Georgia,Bacon,-82.45936528,31.55456473,0,0,0,2020-03-26 23:48:35
US,Texas,Bailey,-102.8299707,34.06854817,0,0,0,2020-03-26 23:48:35
US,Florida,Baker,-82.28467476,30.33060121,5,0,0,2020-03-26 23:48:35
US,Georgia,Baker,-84.44218806,31.32669878,1,0,0,2020-03-26 23:48:35
US,Oregon,Baker,-117.6749883,44.70915557,0,0,0,2020-03-26 23:48:35
US,Alabama,Baldwin,-87.72207058,30.72774991,5,0,0,2020-03-26 23:48:35
US,Georgia,Baldwin,-83.24701748,33.06882326,2,0,0,2020-03-26 23:48:35
US,Kentucky,Ballard,-88.99427697,37.05842757,0,0,0,2020-03-26 23:48:35
US,Maryland,Baltimore,-76.62911955,39.45784712,81,1,0,2020-03-26 23:48:35
US,Maryland,Baltimore City,-76.61151012,39.30211911,72,0,0,2020-03-26 23:48:35
US,South Carolina,Bamberg,-81.05659969,33.21927586,0,0,0,2020-03-26 23:48:35
US,Texas,Bandera,-99.24598147,29.74619598,0,0,0,2020-03-26 23:48:35
US,Georgia,Banks,-83.49644388,34.35607081,0,0,0,2020-03-26 23:48:35
US,Nebraska,Banner,-103.7114332,41.54634427,0,0,0,2020-03-26 23:48:35
US,Idaho,Bannock,-112.2233311,42.67002716,3,0,0,2020-03-26 23:48:35
US,Michigan,Baraga,-88.36363591,46.6720582,0,0,0,2020-03-26 23:48:35
US,Kansas,Barber,-98.68460053,37.2288586,0,0,0,2020-03-26 23:48:35
US,Alabama,Barbour,-85.3871286,31.868263,0,0,0,2020-03-26 23:48:35
US,West Virginia,Barbour,-80.00350858,39.1307219,0,0,0,2020-03-26 23:48:35
US,North Dakota,Barnes,-98.06605978,46.93579637,0,0,0,2020-03-26 23:48:35
US,Massachusetts,Barnstable,-70.28854339,41.72980578,67,1,0,2020-03-26 23:48:35
US,South Carolina,Barnwell,-81.43584352,33.26679302,0,0,0,2020-03-26 23:48:35
US,Kentucky,Barren,-85.93338945,36.96469836,0,0,0,2020-03-26 23:48:35
US,Wisconsin,Barron,-91.84833627,45.42372701,0,0,0,2020-03-26 23:48:35
US,Georgia,Barrow,-83.71436292,33.99148694,4,0,0,2020-03-26 23:48:35
US,Michigan,Barry,-85.30834519,42.59513984,1,0,0,2020-03-26 23:48:35
US,Missouri,Barry,-93.82919888,36.70978521,0,0,0,2020-03-26 23:48:35
US,Indiana,Bartholomew,-85.89558181,39.20744865,6,0,0,2020-03-26 23:48:35
US,Kansas,Barton,-98.75636726,38.47889676,0,0,0,2020-03-26 23:48:35
US,Missouri,Barton,-94.34757022,37.50207671,0,0,0,2020-03-26 23:48:35
US,Georgia,Bartow,-84.83887523,34.23732119,86,1,0,2020-03-26 23:48:35
US,Texas,Bastrop,-97.31206354,30.10370699,2,0,0,2020-03-26 23:48:35
US,Missouri,Bates,-94.34113157,38.25271289,1,0,0,2020-03-26 23:48:35
US,Kentucky,Bath,-83.74588932,38.14735938,0,0,0,2020-03-26 23:48:35
US,Virginia,Bath,-79.73912095,38.05852573,0,0,0,2020-03-26 23:48:35
US,Arkansas,Baxter,-92.33782872,36.28784385,0,0,0,2020-03-26 23:48:35
US,Florida,Bay,-85.62122584,30.26548745,3,0,0,2020-03-26 23:48:35
US,Michigan,Bay,-83.98731479,43.70639106,4,0,0,2020-03-26 23:48:35
US,Wisconsin,Bayfield,-91.19716729,46.52868768,1,0,0,2020-03-26 23:48:35
US,Texas,Baylor,-99.21352901,33.61640794,0,0,0,2020-03-26 23:48:35
US,South Dakota,Beadle,-98.27858469,44.41464384,14,0,0,2020-03-26 23:48:35
US,Idaho,Bear Lake,-111.32892379999998,42.28269683,0,0,0,2020-03-26 23:48:35
US,North Carolina,Beaufort,-76.84325809,35.48531943,3,0,0,2020-03-26 23:48:35
US,South Carolina,Beaufort,-80.72619758,32.39226291,26,0,0,2020-03-26 23:48:35
US,Louisiana,Beauregard,-93.34173616,30.64836518,3,0,0,2020-03-26 23:48:35
US,Oklahoma,Beaver,-100.4758872,36.7496847,0,0,0,2020-03-26 23:48:35
US,Pennsylvania,Beaver,-80.34921611,40.6825484,13,0,0,2020-03-26 23:48:35
US,Utah,Beaver,-113.2342232,38.35657051,0,0,0,2020-03-26 23:48:35
US,Montana,Beaverhead,-112.8984694,45.13434354,0,0,0,2020-03-26 23:48:35
US,Minnesota,Becker,-95.67158144,46.93479392,0,0,0,2020-03-26 23:48:35
US,Oklahoma,Beckham,-99.68128023,35.26862449,0,0,0,2020-03-26 23:48:35
US,Pennsylvania,Bedford,-78.48998442,40.00522157,0,0,0,2020-03-26 23:48:35
US,Tennessee,Bedford,-86.45549096,35.51123746,1,0,0,2020-03-26 23:48:35
US,Virginia,Bedford,-79.5281964,37.3080028,3,0,0,2020-03-26 23:48:35
US,Texas,Bee,-97.74215593,28.41761668,0,0,0,2020-03-26 23:48:35
US,New Hampshire,Belknap,-71.41684235,43.51637314,8,0,0,2020-03-26 23:48:35
US,Kentucky,Bell,-83.67766671,36.73355174,0,0,0,2020-03-26 23:48:35
US,Texas,Bell,-97.4785025,31.03736027,20,1,0,2020-03-26 23:48:35
US,Ohio,Belmont,-80.9924051,40.01625942,3,0,0,2020-03-26 23:48:35
US,Minnesota,Beltrami,-94.93732139,47.97373527,0,0,0,2020-03-26 23:48:35
US,Georgia,Ben Hill,-83.22145359,31.76095874,1,0,0,2020-03-26 23:48:35
US,Idaho,Benewah,-116.6586851,47.21754179,0,0,0,2020-03-26 23:48:35
US,South Dakota,Bennett,-101.6665572,43.19486375,0,0,0,2020-03-26 23:48:35
US,Vermont,Bennington,-73.09048868,43.03519828,11,0,0,2020-03-26 23:48:35
US,North Dakota,Benson,-99.35916363,48.0683985,0,0,0,2020-03-26 23:48:35
US,Colorado,Bent,-103.0720195,37.95474293,0,0,0,2020-03-26 23:48:35
US,Arkansas,Benton,-94.25680817,36.33644656,18,0,0,2020-03-26 23:48:35
US,Indiana,Benton,-87.31093999,40.60626947,0,0,0,2020-03-26 23:48:35
US,Iowa,Benton,-92.06463573,42.08011739,2,0,0,2020-03-26 23:48:35
US,Minnesota,Benton,-93.99514135,45.69804958,1,0,0,2020-03-26 23:48:35
US,Mississippi,Benton,-89.18945516,34.81681228,1,0,0,2020-03-26 23:48:35
US,Missouri,Benton,-93.28756116,38.29503305,1,0,0,2020-03-26 23:48:35
US,Oregon,Benton,-123.4316987,44.49167306,6,0,0,2020-03-26 23:48:35
US,Tennessee,Benton,-88.06849355,36.07110411,1,0,0,2020-03-26 23:48:35
US,Washington,Benton,-119.5120834,46.23946995,19,4,0,2020-03-26 23:48:35
US,Michigan,Benzie,-86.01608482,44.63899297,0,0,0,2020-03-26 23:48:35
US,New Jersey,Bergen,-74.07164325,40.96010917,1206,6,0,2020-03-26 23:48:35
US,South Carolina,Berkeley,-79.94654523,33.20222596,5,0,0,2020-03-26 23:48:35
US,West Virginia,Berkeley,-78.02414609,39.46704621,2,0,0,2020-03-26 23:48:35
US,Pennsylvania,Berks,-75.92457766,40.41570541,36,0,0,2020-03-26 23:48:35
US,Massachusetts,Berkshire,-73.20524838,42.37428441,73,0,0,2020-03-26 23:48:35
US,New Mexico,Bernalillo,-106.6703554,35.05163625,48,0,0,2020-03-26 23:48:35
US,Georgia,Berrien,-83.22529920000002,31.27590016,0,0,0,2020-03-26 23:48:35
US,Michigan,Berrien,-86.41313079999998,41.95447397,11,0,0,2020-03-26 23:48:35
US,North Carolina,Bertie,-76.96545943,36.0688473,3,0,0,2020-03-26 23:48:35
US,Alaska,Bethel,-159.8561831,60.90980451,0,0,0,2020-03-26 23:48:35
US,Texas,Bexar,-98.52019748,29.44928723,84,3,0,2020-03-26 23:48:35
US,Alabama,Bibb,-87.12511459999996,32.99642064,0,0,0,2020-03-26 23:48:35
US,Georgia,Bibb,-83.70489165,32.80904227,8,0,0,2020-03-26 23:48:35
US,Louisiana,Bienville,-93.05398492,32.34569994,1,1,0,2020-03-26 23:48:35
US,Montana,Big Horn,-107.492347,45.42335905,0,0,0,2020-03-26 23:48:35
US,Wyoming,Big Horn,-107.9960365,44.52405055,0,0,0,2020-03-26 23:48:35
US,Minnesota,Big Stone,-96.41403739,45.42712824,1,0,0,2020-03-26 23:48:35
US,North Dakota,Billings,-103.3762965,47.02366884,0,0,0,2020-03-26 23:48:35
US,Idaho,Bingham,-112.3978437,43.21672879999999,2,0,0,2020-03-26 23:48:35
US,Iowa,Black Hawk,-92.30524729,42.4704581,5,0,0,2020-03-26 23:48:35
US,Indiana,Blackford,-85.32499702,40.47388153,0,0,0,2020-03-26 23:48:35
US,North Carolina,Bladen,-78.56180059,34.61296243,0,0,0,2020-03-26 23:48:35
US,Idaho,Blaine,-113.9752658,43.4085812,66,2,0,2020-03-26 23:48:35
US,Montana,Blaine,-108.9582723,48.43175214,0,0,0,2020-03-26 23:48:35
US,Nebraska,Blaine,-99.97677845,41.91311716,0,0,0,2020-03-26 23:48:35
US,Oklahoma,Blaine,-98.43307003,35.87518314,0,0,0,2020-03-26 23:48:35
US,Pennsylvania,Blair,-78.34917412,40.47961444,1,0,0,2020-03-26 23:48:35
US,Texas,Blanco,-98.3999852,30.26640707,1,0,0,2020-03-26 23:48:35
US,Virginia,Bland,-81.13599391,37.13128068,0,0,0,2020-03-26 23:48:35
US,Georgia,Bleckley,-83.33035166,32.43829035,0,0,0,2020-03-26 23:48:35
US,Tennessee,Bledsoe,-85.20611967,35.59942968,0,0,0,2020-03-26 23:48:35
US,Alabama,Blount,-86.56790593,33.98210918,2,0,0,2020-03-26 23:48:35
US,Tennessee,Blount,-83.92847788,35.68938198,4,0,0,2020-03-26 23:48:35
US,Minnesota,Blue Earth,-94.06699781,44.03554215,6,0,0,2020-03-26 23:48:35
US,Idaho,Boise,-115.7309284,43.98829931,0,0,0,2020-03-26 23:48:35
US,Mississippi,Bolivar,-90.87372121,33.79696941,6,0,0,2020-03-26 23:48:35
US,Missouri,Bollinger,-90.02725304,37.32449052,1,0,0,2020-03-26 23:48:35
US,South Dakota,Bon Homme,-97.88592746,42.98914167,1,0,0,2020-03-26 23:48:35
US,Illinois,Bond,-89.43534887,38.88829622,0,0,0,2020-03-26 23:48:35
US,Idaho,Bonner,-116.6017932,48.29996017,0,0,0,2020-03-26 23:48:35
US,Idaho,Bonneville,-111.6161537,43.38713372,0,0,0,2020-03-26 23:48:35
US,Arkansas,Boone,-93.09374925,36.3084504,1,0,0,2020-03-26 23:48:35
US,Illinois,Boone,-88.82345779,42.32359279,0,0,0,2020-03-26 23:48:35
US,Indiana,Boone,-86.46841646,40.0509304,7,0,0,2020-03-26 23:48:35
US,Iowa,Boone,-93.9313999,42.03657094,0,0,0,2020-03-26 23:48:35
US,Kentucky,Boone,-84.72615357,38.97065142,1,0,0,2020-03-26 23:48:35
US,Missouri,Boone,-92.30723575,38.99186229,37,1,0,2020-03-26 23:48:35
US,Nebraska,Boone,-98.06737183,41.70759415,0,0,0,2020-03-26 23:48:35
US,West Virginia,Boone,-81.69888019,38.01974191,0,0,0,2020-03-26 23:48:35
US,Texas,Borden,-101.4316509,32.74363984,0,0,0,2020-03-26 23:48:35
US,Texas,Bosque,-97.63613524,31.89978581,0,0,0,2020-03-26 23:48:35
US,Louisiana,Bossier,-93.60460152,32.67932307,32,0,0,2020-03-26 23:48:35
US,Virginia,Botetourt,-79.80982182,37.55531756,1,0,0,2020-03-26 23:48:35
US,North Dakota,Bottineau,-100.8378166,48.79106111,0,0,0,2020-03-26 23:48:35
US,Colorado,Boulder,-105.3546767,40.09313619,66,0,0,2020-03-26 23:48:35
US,Idaho,Boundary,-116.4630179,48.76684761,0,0,0,2020-03-26 23:48:35
US,Kansas,Bourbon,-94.84865997,37.85508555,1,0,0,2020-03-26 23:48:35
US,Kentucky,Bourbon,-84.21827874,38.2054607,2,1,0,2020-03-26 23:48:35
US,Texas,Bowie,-94.41834132,33.44626922,1,0,0,2020-03-26 23:48:35
US,North Dakota,Bowman,-103.5203343,46.11285362,0,0,0,2020-03-26 23:48:35
US,Nebraska,Box Butte,-103.0878834,42.22079243,0,0,0,2020-03-26 23:48:35
US,Utah,Box Elder,-113.0832816,41.52106798,0,0,0,2020-03-26 23:48:35
US,Kentucky,Boyd,-82.68652187,38.36176608,0,0,0,2020-03-26 23:48:35
US,Nebraska,Boyd,-98.76486568,42.8997274,0,0,0,2020-03-26 23:48:35
US,Kentucky,Boyle,-84.8633779,37.62680923,0,0,0,2020-03-26 23:48:35
US,Kentucky,Bracken,-84.08532444,38.69158994,0,0,0,2020-03-26 23:48:35
US,Florida,Bradford,-82.16611613,29.95079741,1,0,0,2020-03-26 23:48:35
US,Pennsylvania,Bradford,-76.51570822,41.78869215,2,0,0,2020-03-26 23:48:35
US,Arkansas,Bradley,-92.15980837,33.46755808,4,0,0,2020-03-26 23:48:35
US,Tennessee,Bradley,-84.857186,35.15739424,5,0,0,2020-03-26 23:48:35
US,Michigan,Branch,-85.05929476,41.91600556,0,0,0,2020-03-26 23:48:35
US,Georgia,Brantley,-81.97743999,31.19576557,0,0,0,2020-03-26 23:48:35
US,West Virginia,Braxton,-80.72011184,38.70036159,0,0,0,2020-03-26 23:48:35
US,Texas,Brazoria,-95.44563172,29.18757369,39,0,0,2020-03-26 23:48:35
US,Texas,Brazos,-96.30205577,30.663644800000004,28,0,0,2020-03-26 23:48:35
US,Kentucky,Breathitt,-83.31959161,37.52333168,2,0,0,2020-03-26 23:48:35
US,Kentucky,Breckinridge,-86.42885017,37.77377239,0,0,0,2020-03-26 23:48:35
US,Iowa,Bremer,-92.31795937,42.77461496,0,0,0,2020-03-26 23:48:35
US,Florida,Brevard,-80.73091022,28.29409504,13,0,0,2020-03-26 23:48:35
US,Texas,Brewster,-103.2520326,29.81008251,0,0,0,2020-03-26 23:48:35
US,Texas,Briscoe,-101.2084947,34.53026962,0,0,0,2020-03-26 23:48:35
US,Massachusetts,Bristol,-71.10872211,41.79228404,90,0,0,2020-03-26 23:48:35
US,Rhode Island,Bristol,-71.28652315,41.71018079,6,0,0,2020-03-26 23:48:35
US,Virginia,Bristol,-82.16359122,36.6163024,0,0,0,2020-03-26 23:48:35
US,Alaska,Bristol Bay,-156.701064,58.74513976,0,0,0,2020-03-26 23:48:35
US,Montana,Broadwater,-111.4955813,46.33277565,2,0,0,2020-03-26 23:48:35
US,New York,Bronx,-73.86282755,40.85209301,0,0,0,2020-03-26 23:48:35
US,West Virginia,Brooke,-80.57915332,40.27367263,0,0,0,2020-03-26 23:48:35
US,South Dakota,Brookings,-96.79079945,44.36974375,1,0,0,2020-03-26 23:48:35
US,Georgia,Brooks,-83.58303423,30.83922642,0,0,0,2020-03-26 23:48:35
US,Texas,Brooks,-98.21808402,27.03103197,0,0,0,2020-03-26 23:48:35
US,New York,Broome,-75.81326086,42.15903158,16,2,0,2020-03-26 23:48:35
US,Colorado,Broomfield,-105.0566324,39.95998787,10,0,0,2020-03-26 23:48:35
US,Florida,Broward,-80.48725556,26.15184651,504,3,0,2020-03-26 23:48:35
US,Illinois,Brown,-90.75068024,39.96209138,0,0,0,2020-03-26 23:48:35
US,Indiana,Brown,-86.22868909,39.19605589,1,0,0,2020-03-26 23:48:35
US,Kansas,Brown,-95.56421698,39.82652589,0,0,0,2020-03-26 23:48:35
US,Minnesota,Brown,-94.72562874,44.24205652,0,0,0,2020-03-26 23:48:35
US,Nebraska,Brown,-99.92904055,42.43018907,0,0,0,2020-03-26 23:48:35
US,Ohio,Brown,-83.86788395,38.93416837,0,0,0,2020-03-26 23:48:35
US,South Dakota,Brown,-98.35165355,45.58994323,2,0,0,2020-03-26 23:48:35
US,Texas,Brown,-98.99907113,31.77430356,3,0,0,2020-03-26 23:48:35
US,Wisconsin,Brown,-88.00411844,44.4526553,4,0,0,2020-03-26 23:48:35
US,South Dakota,Brule,-99.08118954,43.71756379,0,0,0,2020-03-26 23:48:35
US,North Carolina,Brunswick,-78.22814204,34.070565,11,0,0,2020-03-26 23:48:35
US,Virginia,Brunswick,-77.8593436,36.76366949,0,0,0,2020-03-26 23:48:35
US,Georgia,Bryan,-81.44002948,32.00979311,3,0,0,2020-03-26 23:48:35
US,Oklahoma,Bryan,-96.25903472,33.96472458,1,0,0,2020-03-26 23:48:35
US,Iowa,Buchanan,-91.83510825,42.4709188,1,0,0,2020-03-26 23:48:35
US,Missouri,Buchanan,-94.80138942,39.65816401,0,0,0,2020-03-26 23:48:35
US,Virginia,Buchanan,-82.03749726,37.26818323,0,0,0,2020-03-26 23:48:35
US,Virginia,Buckingham,-78.52518834,37.57242268,0,0,0,2020-03-26 23:48:35
US,Pennsylvania,Bucks,-75.10836643,40.33682119,110,0,0,2020-03-26 23:48:35
US,Iowa,Buena Vista,-95.15100162,42.73545875,0,0,0,2020-03-26 23:48:35
US,Virginia,Buena Vista,-79.35296097,37.73484642,0,0,0,2020-03-26 23:48:35
US,Nebraska,Buffalo,-99.07500296,40.85486962,2,0,0,2020-03-26 23:48:35
US,South Dakota,Buffalo,-99.20814467,44.07657829,0,0,0,2020-03-26 23:48:35
US,Wisconsin,Buffalo,-91.75332578,44.37835084,0,0,0,2020-03-26 23:48:35
US,Kentucky,Bullitt,-85.68955617,37.97162523,0,0,0,2020-03-26 23:48:35
US,Georgia,Bulloch,-81.74811421,32.39577406,0,0,0,2020-03-26 23:48:35
US,Alabama,Bullock,-85.71265535,32.10030533,2,0,0,2020-03-26 23:48:35
US,North Carolina,Buncombe,-82.53305,35.61113393,15,0,0,2020-03-26 23:48:35
US,Illinois,Bureau,-89.5283051,41.40385234,0,0,0,2020-03-26 23:48:35
US,Georgia,Burke,-81.99928721,33.05917989,1,0,0,2020-03-26 23:48:35
US,North Carolina,Burke,-81.70755735,35.74989637,2,0,0,2020-03-26 23:48:35
US,North Dakota,Burke,-102.5182117,48.79094471,0,0,0,2020-03-26 23:48:35
US,North Dakota,Burleigh,-100.4645214,46.97847375,22,0,0,2020-03-26 23:48:35
US,Texas,Burleson,-96.62158484,30.49273808,0,0,0,2020-03-26 23:48:35
US,New Jersey,Burlington,-74.66927768,39.87681124,64,0,0,2020-03-26 23:48:35
US,Texas,Burnet,-98.181887,30.78801353,1,0,0,2020-03-26 23:48:35
US,Wisconsin,Burnett,-92.36711412,45.86303537,0,0,0,2020-03-26 23:48:35
US,Nebraska,Burt,-96.32605633,41.85056773,0,0,0,2020-03-26 23:48:35
US,Alabama,Butler,-86.68057478,31.75300095,1,0,0,2020-03-26 23:48:35
US,Iowa,Butler,-92.79015971,42.73172833,0,0,0,2020-03-26 23:48:35
US,Kansas,Butler,-96.83878537,37.78134351,3,0,0,2020-03-26 23:48:35
US,Kentucky,Butler,-86.68748787,37.20946153,0,0,0,2020-03-26 23:48:35
US,Missouri,Butler,-90.40421163,36.71462476,0,0,0,2020-03-26 23:48:35
US,Nebraska,Butler,-97.13106306,41.22703692,0,0,0,2020-03-26 23:48:35
US,Ohio,Butler,-84.57388716,39.44012838,21,0,0,2020-03-26 23:48:35
US,Pennsylvania,Butler,-79.91351055,40.91152759,19,1,0,2020-03-26 23:48:35
US,California,Butte,-121.6005252,39.66727762,5,0,0,2020-03-26 23:48:35
US,Idaho,Butte,-113.1735463,43.72592209,0,0,0,2020-03-26 23:48:35
US,South Dakota,Butte,-103.5079318,44.90608745,0,0,0,2020-03-26 23:48:35
US,Georgia,Butts,-83.95435040000002,33.283094500000004,3,0,0,2020-03-26 23:48:35
US,North Carolina,Cabarrus,-80.55267168,35.3877799,18,2,0,2020-03-26 23:48:35
US,West Virginia,Cabell,-82.23855912,38.42424062,0,0,0,2020-03-26 23:48:35
US,Utah,Cache,-111.7443667,41.72330587,0,0,0,2020-03-26 23:48:35
US,Louisiana,Caddo,-93.88375652,32.57991587,115,1,0,2020-03-26 23:48:35
US,Oklahoma,Caddo,-98.37534464,35.17364557,0,0,0,2020-03-26 23:48:35
US,California,Calaveras,-120.552913,38.20537103,3,0,0,2020-03-26 23:48:35
US,Louisiana,Calcasieu,-93.35400434,30.22931235,15,1,0,2020-03-26 23:48:35
US,Kentucky,Caldwell,-87.86948214,37.14749129,0,0,0,2020-03-26 23:48:35
US,Louisiana,Caldwell,-92.11752148,32.0902519,0,0,0,2020-03-26 23:48:35
US,Missouri,Caldwell,-93.98308093,39.65620858,0,0,0,2020-03-26 23:48:35
US,North Carolina,Caldwell,-81.54799522,35.95204977,3,0,0,2020-03-26 23:48:35
US,Texas,Caldwell,-97.61814775,29.83668859,0,0,0,2020-03-26 23:48:35
US,Vermont,Caledonia,-72.10314651,44.46548598,1,0,0,2020-03-26 23:48:35
US,Alabama,Calhoun,-85.82630386,33.77483727,2,0,0,2020-03-26 23:48:35
US,Arkansas,Calhoun,-92.49974403,33.55598792,0,0,0,2020-03-26 23:48:35
US,Florida,Calhoun,-85.19394153,30.40666734,0,0,0,2020-03-26 23:48:35
US,Georgia,Calhoun,-84.62725131,31.53169785,0,0,0,2020-03-26 23:48:35
US,Illinois,Calhoun,-90.66330078,39.16840183,0,0,0,2020-03-26 23:48:35
US,Iowa,Calhoun,-94.64046046,42.38521079,0,0,0,2020-03-26 23:48:35
US,Michigan,Calhoun,-85.00493569,42.24633834,7,0,0,2020-03-26 23:48:35
US,Mississippi,Calhoun,-89.33686647,33.93683395,3,0,0,2020-03-26 23:48:35
US,South Carolina,Calhoun,-80.77722168,33.66926881,1,0,0,2020-03-26 23:48:35
US,Texas,Calhoun,-96.61633945,28.47048236,2,0,0,2020-03-26 23:48:35
US,West Virginia,Calhoun,-81.11934872,38.84315422,0,0,0,2020-03-26 23:48:35
US,Texas,Callahan,-99.37326312,32.29760619,0,0,0,2020-03-26 23:48:35
US,Missouri,Callaway,-91.92186505,38.83674754,2,0,0,2020-03-26 23:48:35
US,Kentucky,Calloway,-88.2731593,36.62093411,1,0,0,2020-03-26 23:48:35
US,Wisconsin,Calumet,-88.21780273,44.0816316,1,0,0,2020-03-26 23:48:35
US,Maryland,Calvert,-76.56820632,38.53961642,7,0,0,2020-03-26 23:48:35
US,Idaho,Camas,-114.8065892,43.46665742,0,0,0,2020-03-26 23:48:35
US,Pennsylvania,Cambria,-78.71377428,40.49527404,1,0,0,2020-03-26 23:48:35
US,Georgia,Camden,-81.66601818,30.92951916,2,0,0,2020-03-26 23:48:35
US,Missouri,Camden,-92.76083747,38.02199522,1,0,0,2020-03-26 23:48:35
US,New Jersey,Camden,-74.96388753,39.80343818,73,1,0,2020-03-26 23:48:35
US,North Carolina,Camden,-76.15568396,36.33804939,0,0,0,2020-03-26 23:48:35
US,Louisiana,Cameron,-93.19310676,29.87592238,0,0,0,2020-03-26 23:48:35
US,Pennsylvania,Cameron,-78.20376845,41.43625568,0,0,0,2020-03-26 23:48:35
US,Texas,Cameron,-97.48140372,26.14524221,10,0,0,2020-03-26 23:48:35
US,Texas,Camp,-94.97790104,32.97195142,0,0,0,2020-03-26 23:48:35
US,Kentucky,Campbell,-84.37875208,38.94384345,1,0,0,2020-03-26 23:48:35
US,South Dakota,Campbell,-100.0510181,45.77074915,0,0,0,2020-03-26 23:48:35
US,Tennessee,Campbell,-84.15108559999999,36.40355516,2,0,0,2020-03-26 23:48:35
US,Virginia,Campbell,-79.09678609,37.20553386,0,0,0,2020-03-26 23:48:35
US,Wyoming,Campbell,-105.5474404,44.24886082,1,0,0,2020-03-26 23:48:35
US,Oklahoma,Canadian,-97.98465569,35.5426055,6,0,0,2020-03-26 23:48:35
US,Georgia,Candler,-82.07702563,32.40209349,0,0,0,2020-03-26 23:48:35
US,Tennessee,Cannon,-86.05738983,35.80990797,1,0,0,2020-03-26 23:48:35
US,Idaho,Canyon,-116.7095499,43.61970148,13,1,0,2020-03-26 23:48:35
US,Missouri,Cape Girardeau,-89.6843587,37.38489388,3,0,0,2020-03-26 23:48:35
US,New Jersey,Cape May,-74.80170244,39.15008829,6,0,0,2020-03-26 23:48:35
US,Montana,Carbon,-109.0274047,45.22850116,0,0,0,2020-03-26 23:48:35
US,Pennsylvania,Carbon,-75.7068525,40.91545395,2,0,0,2020-03-26 23:48:35
US,Utah,Carbon,-110.5872512,39.64834818,0,0,0,2020-03-26 23:48:35
US,Wyoming,Carbon,-106.9326084,41.69357844,3,0,0,2020-03-26 23:48:35
US,Idaho,Caribou,-111.5597683,42.77149116,0,0,0,2020-03-26 23:48:35
US,Kentucky,Carlisle,-88.96692220000001,36.85372876,0,0,0,2020-03-26 23:48:35
US,Minnesota,Carlton,-92.67601019,46.59180601,0,0,0,2020-03-26 23:48:35
US,Maryland,Caroline,-75.82904158,38.87172293,1,0,0,2020-03-26 23:48:35
US,Virginia,Caroline,-77.34901405,38.02679129,0,0,0,2020-03-26 23:48:35
US,Arkansas,Carroll,-93.54270261,36.34038560000001,0,0,0,2020-03-26 23:48:35
US,Georgia,Carroll,-85.07976677,33.58138199,50,0,0,2020-03-26 23:48:35
US,Illinois,Carroll,-89.93395545,42.06823429,0,0,0,2020-03-26 23:48:35
US,Indiana,Carroll,-86.56198812,40.580783200000006,0,0,0,2020-03-26 23:48:35
US,Iowa,Carroll,-94.86032705,42.03617207,1,0,0,2020-03-26 23:48:35
US,Kentucky,Carroll,-85.12601074,38.66599534,0,0,0,2020-03-26 23:48:35
US,Maryland,Carroll,-77.02373735,39.56453592,7,0,0,2020-03-26 23:48:35
US,Mississippi,Carroll,-89.91994479,33.44834567,0,0,0,2020-03-26 23:48:35
US,Missouri,Carroll,-93.50626255,39.42762566,0,0,0,2020-03-26 23:48:35
US,New Hampshire,Carroll,-71.20430216,43.87498583,7,0,0,2020-03-26 23:48:35
US,Ohio,Carroll,-81.09178213,40.5789686,3,0,0,2020-03-26 23:48:35
US,Tennessee,Carroll,-88.45189331,35.97366108,3,0,0,2020-03-26 23:48:35
US,Virginia,Carroll,-80.73455942,36.73066666,0,0,0,2020-03-26 23:48:35
US,Texas,Carson,-101.3542669,35.40365929,0,0,0,2020-03-26 23:48:35
US,Nevada,Carson City,-119.7480219,39.15509045,2,0,0,2020-03-26 23:48:35
US,Kentucky,Carter,-83.05092385,38.31690743,0,0,0,2020-03-26 23:48:35
US,Missouri,Carter,-90.96051322,36.94160441,1,0,0,2020-03-26 23:48:35
US,Montana,Carter,-104.5395536,45.5197966,0,0,0,2020-03-26 23:48:35
US,Oklahoma,Carter,-97.28552485,34.25103751,1,0,0,2020-03-26 23:48:35
US,Tennessee,Carter,-82.12588974,36.28969086,0,0,0,2020-03-26 23:48:35
US,North Carolina,Carteret,-76.54120135,34.8932941,5,0,0,2020-03-26 23:48:35
US,Minnesota,Carver,-93.8009918,44.82017001,8,0,0,2020-03-26 23:48:35
US,Montana,Cascade,-111.3467922,47.30797024,5,0,0,2020-03-26 23:48:35
US,Kentucky,Casey,-84.92726209,37.32533118,0,0,0,2020-03-26 23:48:35
US,Illinois,Cass,-90.24734436,39.96991073,0,0,0,2020-03-26 23:48:35
US,Indiana,Cass,-86.34830753,40.76135835,0,0,0,2020-03-26 23:48:35
US,Iowa,Cass,-94.92792482,41.33149454,0,0,0,2020-03-26 23:48:35
US,Michigan,Cass,-85.99405727,41.91522292,1,0,0,2020-03-26 23:48:35
US,Minnesota,Cass,-94.32603968,46.95043611,1,0,0,2020-03-26 23:48:35
US,Missouri,Cass,-94.353399,38.64789422,8,0,0,2020-03-26 23:48:35
US,Nebraska,Cass,-96.13971217,40.90899107,2,0,0,2020-03-26 23:48:35
US,North Dakota,Cass,-97.2444719,46.93201724,6,0,0,2020-03-26 23:48:35
US,Texas,Cass,-94.34646905,33.07499881,1,0,0,2020-03-26 23:48:35
US,Idaho,Cassia,-113.6012409,42.28347888,1,0,0,2020-03-26 23:48:35
US,Texas,Castro,-102.2617243,34.53016752,6,0,0,2020-03-26 23:48:35
US,North Carolina,Caswell,-79.33353281,36.39312665,0,0,0,2020-03-26 23:48:35
US,Louisiana,Catahoula,-91.84526385,31.66778967,1,1,0,2020-03-26 23:48:35
US,North Carolina,Catawba,-81.2132617,35.66211129,9,0,0,2020-03-26 23:48:35
US,Georgia,Catoosa,-85.13757014,34.89872298,1,0,0,2020-03-26 23:48:35
US,New Mexico,Catron,-108.4046587,33.91514144,0,0,0,2020-03-26 23:48:35
US,New York,Cattaraugus,-78.67923096,42.24778241,0,0,0,2020-03-26 23:48:35
US,North Dakota,Cavalier,-98.46685243,48.77286211,0,0,0,2020-03-26 23:48:35
US,New York,Cayuga,-76.55731592,42.91261714,2,0,0,2020-03-26 23:48:35
US,Maryland,Cecil,-75.94627411,39.56647682,4,0,0,2020-03-26 23:48:35
US,Iowa,Cedar,-91.13246684,41.77233777,4,0,0,2020-03-26 23:48:35
US,Missouri,Cedar,-93.85445441,37.72391475,0,0,0,2020-03-26 23:48:35
US,Nebraska,Cedar,-97.25311951,42.5988851,0,0,0,2020-03-26 23:48:35
US,Pennsylvania,Centre,-77.82200624,40.92058903,9,0,0,2020-03-26 23:48:35
US,Iowa,Cerro Gordo,-93.2612239,43.08177563,2,0,0,2020-03-26 23:48:35
US,Colorado,Chaffee,-106.19265729999998,38.74745778,5,0,0,2020-03-26 23:48:35
US,Alabama,Chambers,-85.39072749,32.91360079,13,0,0,2020-03-26 23:48:35
US,Texas,Chambers,-94.67154501,29.70972016,2,0,0,2020-03-26 23:48:35
US,Illinois,Champaign,-88.20046615,40.13919438,10,0,0,2020-03-26 23:48:35
US,Ohio,Champaign,-83.76875242,40.13923427,2,0,0,2020-03-26 23:48:35
US,Missouri,Chariton,-92.9629191,39.51499357,0,0,0,2020-03-26 23:48:35
US,Maryland,Charles,-76.98580666,38.51092331,10,0,0,2020-03-26 23:48:35
US,Virginia,Charles City,-77.05634116,37.35358063,1,0,0,2020-03-26 23:48:35
US,South Dakota,Charles Mix,-98.58856175,43.20660134,1,0,0,2020-03-26 23:48:35
US,South Carolina,Charleston,-79.96512315,32.82487866,52,1,0,2020-03-26 23:48:35
US,Michigan,Charlevoix,-85.19614053,45.37790017,4,0,0,2020-03-26 23:48:35
US,Florida,Charlotte,-81.92949121,26.90131002,3,0,0,2020-03-26 23:48:35
US,Virginia,Charlotte,-78.66314092,37.01909701,0,0,0,2020-03-26 23:48:35
US,Virginia,Charlottesville,-78.48569588,38.03527919,9,0,0,2020-03-26 23:48:35
US,Georgia,Charlton,-82.13951596,30.78371028,1,0,0,2020-03-26 23:48:35
US,Kansas,Chase,-96.59563862,38.30292938,0,0,0,2020-03-26 23:48:35
US,Nebraska,Chase,-101.6978026,40.5237198,0,0,0,2020-03-26 23:48:35
US,Georgia,Chatham,-81.12489526,32.00043026,9,0,0,2020-03-26 23:48:35
US,North Carolina,Chatham,-79.25541492,35.70394416,9,0,0,2020-03-26 23:48:35
US,Georgia,Chattahoochee,-84.78809239,32.34341231,0,0,0,2020-03-26 23:48:35
US,Georgia,Chattooga,-85.34535662,34.47197698,1,0,0,2020-03-26 23:48:35
US,Kansas,Chautauqua,-96.2454192,37.14994405,0,0,0,2020-03-26 23:48:35
US,New York,Chautauqua,-79.36691763,42.22769210000001,2,0,0,2020-03-26 23:48:35
US,New Mexico,Chaves,-104.4665365,33.36406072,4,0,0,2020-03-26 23:48:35
US,Tennessee,Cheatham,-87.08903581,36.26136216,7,0,0,2020-03-26 23:48:35
US,Michigan,Cheboygan,-84.50122149,45.44787015,0,0,0,2020-03-26 23:48:35
US,Washington,Chelan,-120.6173956,47.87046092,10,1,0,2020-03-26 23:48:35
US,New York,Chemung,-76.7638805,42.13891056,7,0,0,2020-03-26 23:48:35
US,New York,Chenango,-75.60887553,42.49430041,3,0,0,2020-03-26 23:48:35
US,Alabama,Cherokee,-85.60638968,34.17805983,1,0,0,2020-03-26 23:48:35
US,Georgia,Cherokee,-84.47431861,34.24393976,38,0,0,2020-03-26 23:48:35
US,Iowa,Cherokee,-95.62389402,42.73538914,0,0,0,2020-03-26 23:48:35
US,Kansas,Cherokee,-94.8462897,37.16928494,2,0,0,2020-03-26 23:48:35
US,North Carolina,Cherokee,-84.05970864,35.1349263,4,0,0,2020-03-26 23:48:35
US,Oklahoma,Cherokee,-94.99980896,35.90692775,0,0,0,2020-03-26 23:48:35
US,South Carolina,Cherokee,-81.61828622,35.05122251,0,0,0,2020-03-26 23:48:35
US,Texas,Cherokee,-95.16559897,31.837258,0,0,0,2020-03-26 23:48:35
US,Nebraska,Cherry,-101.1244332,42.54502621,0,0,0,2020-03-26 23:48:35
US,Virginia,Chesapeake,-76.30545744,36.67670048,4,0,0,2020-03-26 23:48:35
US,New Hampshire,Cheshire,-72.25311043,42.92015988,1,0,0,2020-03-26 23:48:35
US,Pennsylvania,Chester,-75.74768357,39.97291773,84,0,0,2020-03-26 23:48:35
US,South Carolina,Chester,-81.1583216,34.69249168,1,0,0,2020-03-26 23:48:35
US,Tennessee,Chester,-88.6095842,35.42527478,2,0,0,2020-03-26 23:48:35
US,South Carolina,Chesterfield,-80.15640140000002,34.64137396,3,0,0,2020-03-26 23:48:35
US,Virginia,Chesterfield,-77.58680140000001,37.37373208,12,0,0,2020-03-26 23:48:35
US,Colorado,Cheyenne,-102.6032558,38.82777431,0,0,0,2020-03-26 23:48:35
US,Kansas,Cheyenne,-101.7318201,39.78580976,0,0,0,2020-03-26 23:48:35
US,Nebraska,Cheyenne,-102.9941693,41.21999357,0,0,0,2020-03-26 23:48:35
US,Iowa,Chickasaw,-92.31773347,43.06001295,0,0,0,2020-03-26 23:48:35
US,Mississippi,Chickasaw,-88.9481545,33.91983202,7,0,0,2020-03-26 23:48:35
US,Arkansas,Chicot,-91.29539209,33.26458973,0,0,0,2020-03-26 23:48:35
US,Texas,Childress,-100.2077916,34.529304100000004,0,0,0,2020-03-26 23:48:35
US,Alabama,Chilton,-86.7173256,32.85044126,4,0,0,2020-03-26 23:48:35
US,Michigan,Chippewa,-84.54353449,46.29552653,1,0,0,2020-03-26 23:48:35
US,Minnesota,Chippewa,-95.56403693,45.02343421,0,0,0,2020-03-26 23:48:35
US,Wisconsin,Chippewa,-91.28068855,45.06939744,1,0,0,2020-03-26 23:48:35
US,Minnesota,Chisago,-92.90861945,45.5021011,2,0,0,2020-03-26 23:48:35
US,Vermont,Chittenden,-73.08359212,44.46322849,75,4,0,2020-03-26 23:48:35
US,Alabama,Choctaw,-88.26564429999998,32.02227341,1,0,0,2020-03-26 23:48:35
US,Mississippi,Choctaw,-89.24809382,33.34598242,4,0,0,2020-03-26 23:48:35
US,Oklahoma,Choctaw,-95.54771129,34.02807439,0,0,0,2020-03-26 23:48:35
US,Montana,Chouteau,-110.4353362,47.88084126,0,0,0,2020-03-26 23:48:35
US,North Carolina,Chowan,-76.60118385,36.12908077,0,0,0,2020-03-26 23:48:35
US,Illinois,Christian,-89.27780482,39.54581621,1,0,0,2020-03-26 23:48:35
US,Kentucky,Christian,-87.49055367,36.89267803,2,0,0,2020-03-26 23:48:35
US,Missouri,Christian,-93.18537118,36.9711783,2,0,0,2020-03-26 23:48:35
US,Nevada,Churchill,-118.3394607,39.58105744,0,0,0,2020-03-26 23:48:35
US,New Mexico,Cibola,-107.998876,34.91131525,1,0,0,2020-03-26 23:48:35
US,Oklahoma,Cimarron,-102.5173885,36.74817177,0,0,0,2020-03-26 23:48:35
US,Florida,Citrus,-82.47614748,28.84804315,11,1,0,2020-03-26 23:48:35
US,Oregon,Clackamas,-122.2179634,45.18787398,21,2,0,2020-03-26 23:48:35
US,Louisiana,Claiborne,-92.99526883,32.82308512,2,0,0,2020-03-26 23:48:35
US,Mississippi,Claiborne,-90.90702196,31.97061673,0,0,0,2020-03-26 23:48:35
US,Tennessee,Claiborne,-83.65947309,36.48319149,2,0,0,2020-03-26 23:48:35
US,Washington,Clallam,-123.9226319,48.04754642,5,0,0,2020-03-26 23:48:35
US,Michigan,Clare,-84.84819859999998,43.98794227,1,0,0,2020-03-26 23:48:35
US,South Carolina,Clarendon,-80.21647898,33.66610974,5,1,0,2020-03-26 23:48:35
US,Pennsylvania,Clarion,-79.42413524,41.19265812,0,0,0,2020-03-26 23:48:35
US,Arkansas,Clark,-93.17484713,34.04613432,15,0,0,2020-03-26 23:48:35
US,Idaho,Clark,-112.3505704,44.28496071,0,0,0,2020-03-26 23:48:35
US,Illinois,Clark,-87.78705622,39.33425789,0,0,0,2020-03-26 23:48:35
US,Indiana,Clark,-85.70510334,38.48015445,10,0,0,2020-03-26 23:48:35
US,Kansas,Clark,-99.81883015,37.23577007,0,0,0,2020-03-26 23:48:35
US,Kentucky,Clark,-84.14615986,37.9689263,2,0,0,2020-03-26 23:48:35
US,Missouri,Clark,-91.73661677,40.41040752,0,0,0,2020-03-26 23:48:35
US,Nevada,Clark,-115.0130241,36.21458855,350,6,0,2020-03-26 23:48:35
US,Ohio,Clark,-83.78498252,39.91592258,2,0,0,2020-03-26 23:48:35
US,South Dakota,Clark,-97.72925109,44.85834507,0,0,0,2020-03-26 23:48:35
US,Washington,Clark,-122.4829204,45.77568046,48,5,0,2020-03-26 23:48:35
US,Wisconsin,Clark,-90.61207486,44.73483377,1,0,0,2020-03-26 23:48:35
US,Alabama,Clarke,-87.83548597,31.68099859,0,0,0,2020-03-26 23:48:35
US,Georgia,Clarke,-83.37124007,33.95436462,24,1,0,2020-03-26 23:48:35
US,Iowa,Clarke,-93.78499767,41.02868181,0,0,0,2020-03-26 23:48:35
US,Mississippi,Clarke,-88.68896219999998,32.04158545,0,0,0,2020-03-26 23:48:35
US,Virginia,Clarke,-77.99199425,39.11271747,0,0,0,2020-03-26 23:48:35
US,Oregon,Clatsop,-123.660711,45.99712889,2,0,0,2020-03-26 23:48:35
US,Alabama,Clay,-85.85836077,33.26984193,1,0,0,2020-03-26 23:48:35
US,Arkansas,Clay,-90.4148172,36.36826212,0,0,0,2020-03-26 23:48:35
US,Florida,Clay,-81.85609986,29.98319144,19,4,0,2020-03-26 23:48:35
US,Georgia,Clay,-84.97713865,31.62221166,0,0,0,2020-03-26 23:48:35
US,Illinois,Clay,-88.48914513,38.75388572,0,0,0,2020-03-26 23:48:35
US,Indiana,Clay,-87.11723506,39.39561833,0,0,0,2020-03-26 23:48:35
US,Iowa,Clay,-95.15096481,43.08247182,0,0,0,2020-03-26 23:48:35
US,Kansas,Clay,-97.16518128,39.34948772,0,0,0,2020-03-26 23:48:35
US,Kentucky,Clay,-83.712575,37.16451126,0,0,0,2020-03-26 23:48:35
US,Minnesota,Clay,-96.48761922,46.89289518,4,0,0,2020-03-26 23:48:35
US,Mississippi,Clay,-88.77784255,33.65358105,1,0,0,2020-03-26 23:48:35
US,Missouri,Clay,-94.41850862,39.31132056,5,0,0,2020-03-26 23:48:35
US,Nebraska,Clay,-98.05126296,40.52439441,0,0,0,2020-03-26 23:48:35
US,North Carolina,Clay,-83.74353633,35.05704275,0,0,0,2020-03-26 23:48:35
US,South Dakota,Clay,-96.97656917,42.91296147,0,0,0,2020-03-26 23:48:35
US,Tennessee,Clay,-85.53930419,36.55151008,0,0,0,2020-03-26 23:48:35
US,Texas,Clay,-98.20771198,33.78686685,0,0,0,2020-03-26 23:48:35
US,West Virginia,Clay,-81.07652217,38.46231092,0,0,0,2020-03-26 23:48:35
US,Georgia,Clayton,-84.35594188,33.54187245,32,0,0,2020-03-26 23:48:35
US,Iowa,Clayton,-91.34133693,42.84443388,1,0,0,2020-03-26 23:48:35
US,Colorado,Clear Creek,-105.6463118,39.68864463,3,0,0,2020-03-26 23:48:35
US,Pennsylvania,Clearfield,-78.47592663,41.00110782,2,0,0,2020-03-26 23:48:35
US,Idaho,Clearwater,-115.6622393,46.67459924,0,0,0,2020-03-26 23:48:35
US,Minnesota,Clearwater,-95.37790562,47.57992111,0,0,0,2020-03-26 23:48:35
US,Alabama,Cleburne,-85.52005899,33.67679204,1,0,0,2020-03-26 23:48:35
US,Arkansas,Cleburne,-92.02640019,35.53864922,47,1,0,2020-03-26 23:48:35
US,Ohio,Clermont,-84.15375786,39.04847534,6,0,0,2020-03-26 23:48:35
US,Arkansas,Cleveland,-92.18537045,33.89723187,3,0,0,2020-03-26 23:48:35
US,North Carolina,Cleveland,-81.55204486,35.33553364,2,0,0,2020-03-26 23:48:35
US,Oklahoma,Cleveland,-97.32519562,35.20413532,39,3,0,2020-03-26 23:48:35
US,Georgia,Clinch,-82.70432472,30.91395822,1,0,0,2020-03-26 23:48:35
US,Illinois,Clinton,-89.42385254,38.60704876,4,0,0,2020-03-26 23:48:35
US,Indiana,Clinton,-86.47277257,40.30319754,0,0,0,2020-03-26 23:48:35
US,Iowa,Clinton,-90.53275096,41.89981633,0,0,0,2020-03-26 23:48:35
US,Kentucky,Clinton,-85.13377529,36.72581156,0,0,0,2020-03-26 23:48:35
US,Michigan,Clinton,-84.60145248,42.94400871,7,0,0,2020-03-26 23:48:35
US,Missouri,Clinton,-94.40465394,39.6013098,1,0,0,2020-03-26 23:48:35
US,New York,Clinton,-73.67875352,44.74530905,11,0,0,2020-03-26 23:48:35
US,Ohio,Clinton,-83.80852286,39.41485808,2,0,0,2020-03-26 23:48:35
US,Pennsylvania,Clinton,-77.63785995,41.23255967,0,0,0,2020-03-26 23:48:35
US,Kansas,Cloud,-97.64925343,39.48028352,0,0,0,2020-03-26 23:48:35
US,Mississippi,Coahoma,-90.60415045,34.22772299,17,0,0,2020-03-26 23:48:35
US,Oklahoma,Coal,-96.29798747,34.58840127,0,0,0,2020-03-26 23:48:35
US,Georgia,Cobb,-84.5761255,33.94243204,115,2,0,2020-03-26 23:48:35
US,Arizona,Cochise,-109.7516088,31.87934684,2,0,0,2020-03-26 23:48:35
US,Texas,Cochran,-102.8284499,33.60425307,0,0,0,2020-03-26 23:48:35
US,Tennessee,Cocke,-83.11828725,35.9278914,1,0,0,2020-03-26 23:48:35
US,Arizona,Coconino,-111.7707178,35.83883429,28,1,0,2020-03-26 23:48:35
US,South Dakota,Codington,-97.18827677,44.97788119,1,0,0,2020-03-26 23:48:35
US,Alabama,Coffee,-85.98901039,31.39932826,1,0,0,2020-03-26 23:48:35
US,Georgia,Coffee,-82.85492059999999,31.54892966,2,0,0,2020-03-26 23:48:35
US,Tennessee,Coffee,-86.07311784,35.49090731,0,0,0,2020-03-26 23:48:35
US,Kansas,Coffey,-95.73379515,38.2365018,0,0,0,2020-03-26 23:48:35
US,Texas,Coke,-100.5297533,31.88911733,0,0,0,2020-03-26 23:48:35
US,Alabama,Colbert,-87.80168544,34.69847452,1,0,0,2020-03-26 23:48:35
US,Missouri,Cole,-92.27860244,38.50455671,8,0,0,2020-03-26 23:48:35
US,Texas,Coleman,-99.45240766,31.76736834,0,0,0,2020-03-26 23:48:35
US,Illinois,Coles,-88.22358557,39.51949084,0,0,0,2020-03-26 23:48:35
US,Nebraska,Colfax,-97.0868542,41.57486951,0,0,0,2020-03-26 23:48:35
US,New Mexico,Colfax,-104.64726740000002,36.60569702,0,0,0,2020-03-26 23:48:35
US,South Carolina,Colleton,-80.67641292,32.87582989,1,0,0,2020-03-26 23:48:35
US,Florida,Collier,-81.34687065,26.11091986,65,0,0,2020-03-26 23:48:35
US,Texas,Collin,-96.57264368,33.18820114,66,1,0,2020-03-26 23:48:35
US,Texas,Collingsworth,-100.2700111,34.96489496,0,0,0,2020-03-26 23:48:35
US,Virginia,Colonial Heights,-77.39609676,37.26420587,0,0,0,2020-03-26 23:48:35
US,Texas,Colorado,-96.5273805,29.622098,0,0,0,2020-03-26 23:48:35
US,Georgia,Colquitt,-83.7677946,31.18810588,4,0,0,2020-03-26 23:48:35
US,Arkansas,Columbia,-93.22642793,33.21230701,1,0,0,2020-03-26 23:48:35
US,Florida,Columbia,-82.62160164,30.22509788,3,0,0,2020-03-26 23:48:35
US,Georgia,Columbia,-82.263524,33.54534185,10,0,0,2020-03-26 23:48:35
US,New York,Columbia,-73.63089095,42.24819348,24,0,0,2020-03-26 23:48:35
US,Oregon,Columbia,-123.0890898,45.94464254,0,0,0,2020-03-26 23:48:35
US,Pennsylvania,Columbia,-76.40565017,41.04821986,3,0,0,2020-03-26 23:48:35
US,Washington,Columbia,-117.9051983,46.29442881,1,0,0,2020-03-26 23:48:35
US,Wisconsin,Columbia,-89.33589004,43.46492199,5,0,0,2020-03-26 23:48:35
US,Ohio,Columbiana,-80.78094576,40.76932373,5,1,0,2020-03-26 23:48:35
US,North Carolina,Columbus,-78.65801424,34.26744084,0,0,0,2020-03-26 23:48:35
US,California,Colusa,-122.2331726,39.17881957,0,0,0,2020-03-26 23:48:35
US,Texas,Comal,-98.27647225,29.80811278,8,0,0,2020-03-26 23:48:35
US,Kansas,Comanche,-99.27113247,37.19114520000001,0,0,0,2020-03-26 23:48:35
US,Oklahoma,Comanche,-98.47195055,34.65973764,3,0,0,2020-03-26 23:48:35
US,Texas,Comanche,-98.55876441,31.94854689,0,0,0,2020-03-26 23:48:35
US,Texas,Concho,-99.86473038,31.32635934,0,0,0,2020-03-26 23:48:35
US,Louisiana,Concordia,-91.63814433,31.44817835,0,0,0,2020-03-26 23:48:35
US,Alabama,Conecuh,-86.99320044,31.43401703,0,0,0,2020-03-26 23:48:35
US,Colorado,Conejos,-106.19174879999998,37.201606,0,0,0,2020-03-26 23:48:35
US,California,Contra Costa,-121.9289527,37.91923498,131,1,0,2020-03-26 23:48:35
US,Wyoming,Converse,-105.5081848,42.97272268,0,0,0,2020-03-26 23:48:35
US,Arkansas,Conway,-92.70506566,35.26205537,1,0,0,2020-03-26 23:48:35
US,Georgia,Cook,-83.42947229,31.16068491,0,0,0,2020-03-26 23:48:35
US,Illinois,Cook,-87.81658794,41.84144849,1418,18,0,2020-03-26 23:48:35
US,Minnesota,Cook,-90.52629546,47.90504893,0,0,0,2020-03-26 23:48:35
US,Texas,Cooke,-97.21240912,33.63979567,0,0,0,2020-03-26 23:48:35
US,Missouri,Cooper,-92.80896081,38.844478,1,0,0,2020-03-26 23:48:35
US,New Hampshire,Coos,-71.30633239,44.69063265,0,0,0,2020-03-26 23:48:35
US,Oregon,Coos,-124.0594514,43.17406868,0,0,0,2020-03-26 23:48:35
US,Alabama,Coosa,-86.24847739,32.93690146,2,0,0,2020-03-26 23:48:35
US,Mississippi,Copiah,-90.44565118,31.86977774,8,0,0,2020-03-26 23:48:35
US,South Dakota,Corson,-101.1970473,45.70889983,0,0,0,2020-03-26 23:48:35
US,New York,Cortland,-76.07048931,42.59509207,3,0,0,2020-03-26 23:48:35
US,Texas,Coryell,-97.79936155,31.39078397,1,0,0,2020-03-26 23:48:35
US,Ohio,Coshocton,-81.91729018,40.30096166,4,0,0,2020-03-26 23:48:35
US,Colorado,Costilla,-105.4276548,37.27732493,0,0,0,2020-03-26 23:48:35
US,Texas,Cottle,-100.2785062,34.07783319,0,0,0,2020-03-26 23:48:35
US,Oklahoma,Cotton,-98.37053567,34.28845626,0,0,0,2020-03-26 23:48:35
US,Minnesota,Cottonwood,-95.18138802,44.00715262,0,0,0,2020-03-26 23:48:35
US,Alabama,Covington,-86.45050893,31.2477854,0,0,0,2020-03-26 23:48:35
US,Mississippi,Covington,-89.55389939,31.63225413,0,0,0,2020-03-26 23:48:35
US,Virginia,Covington,-79.98631446,37.7824656,0,0,0,2020-03-26 23:48:35
US,Georgia,Coweta,-84.76129976,33.35334302,12,0,0,2020-03-26 23:48:35
US,Kansas,Cowley,-96.83776647,37.23781842,0,0,0,2020-03-26 23:48:35
US,Washington,Cowlitz,-122.6782231,46.19074721,7,0,0,2020-03-26 23:48:35
US,Oklahoma,Craig,-95.20916602,36.76268118,1,0,0,2020-03-26 23:48:35
US,Virginia,Craig,-80.21072274,37.48133648,0,0,0,2020-03-26 23:48:35
US,Arkansas,Craighead,-90.63235729,35.83018283,4,0,0,2020-03-26 23:48:35
US,Texas,Crane,-102.5143314,31.43052248,1,0,0,2020-03-26 23:48:35
US,North Carolina,Craven,-77.08398081,35.11833364,3,0,0,2020-03-26 23:48:35
US,Arkansas,Crawford,-94.2446814,35.58928601,1,0,0,2020-03-26 23:48:35
US,Georgia,Crawford,-83.98061238,32.71391813,0,0,0,2020-03-26 23:48:35
US,Illinois,Crawford,-87.75954624,39.0032229,0,0,0,2020-03-26 23:48:35
US,Indiana,Crawford,-86.44518825,38.28814402,0,0,0,2020-03-26 23:48:35
US,Iowa,Crawford,-95.3819718,42.03718237,0,0,0,2020-03-26 23:48:35
US,Kansas,Crawford,-94.85245778,37.50675523,3,0,0,2020-03-26 23:48:35
US,Michigan,Crawford,-84.61006219,44.68255561,0,0,0,2020-03-26 23:48:35
US,Missouri,Crawford,-91.30528104,37.97663738,0,0,0,2020-03-26 23:48:35
US,Ohio,Crawford,-82.91989099,40.85065156,1,0,0,2020-03-26 23:48:35
US,Pennsylvania,Crawford,-80.10760592,41.68447709,1,0,0,2020-03-26 23:48:35
US,Wisconsin,Crawford,-90.93073686,43.23870316,0,0,0,2020-03-26 23:48:35
US,Oklahoma,Creek,-96.37086028,35.90230551,10,0,0,2020-03-26 23:48:35
US,Alabama,Crenshaw,-86.31593104,31.72941803,0,0,0,2020-03-26 23:48:35
US,Georgia,Crisp,-83.76811843,31.92289565,4,0,0,2020-03-26 23:48:35
US,Arkansas,Crittenden,-90.30839406,35.21247318,7,0,0,2020-03-26 23:48:35
US,Kentucky,Crittenden,-88.08826090000002,37.35839237,0,0,0,2020-03-26 23:48:35
US,Tennessee,Crockett,-89.14916269,35.81830662,0,0,0,2020-03-26 23:48:35
US,Texas,Crockett,-101.4134238,30.72367027,0,0,0,2020-03-26 23:48:35
US,Oregon,Crook,-120.356297,44.14230227,0,0,0,2020-03-26 23:48:35
US,Wyoming,Crook,-104.5697705,44.58855102,0,0,0,2020-03-26 23:48:35
US,Texas,Crosby,-101.3000364,33.61431553,0,0,0,2020-03-26 23:48:35
US,Arkansas,Cross,-90.77185818,35.29631396,1,0,0,2020-03-26 23:48:35
US,Minnesota,Crow Wing,-94.06755609,46.48096553,0,0,0,2020-03-26 23:48:35
US,Colorado,Crowley,-103.7844965,38.32608609,1,1,0,2020-03-26 23:48:35
US,Texas,Culberson,-104.5185739,31.44506775,0,0,0,2020-03-26 23:48:35
US,Alabama,Cullman,-86.86888037,34.13020303,6,0,0,2020-03-26 23:48:35
US,Virginia,Culpeper,-77.95630870000002,38.48199985,2,0,0,2020-03-26 23:48:35
US,Illinois,Cumberland,-88.2401158,39.27432424,1,0,0,2020-03-26 23:48:35
US,Kentucky,Cumberland,-85.39050034,36.78926125,0,0,0,2020-03-26 23:48:35
US,Maine,Cumberland,-70.37226999,43.8370751,90,0,0,2020-03-26 23:48:35
US,New Jersey,Cumberland,-75.10712559,39.37199394,4,0,0,2020-03-26 23:48:35
US,North Carolina,Cumberland,-78.82623165,35.04762133,8,0,0,2020-03-26 23:48:35
US,Pennsylvania,Cumberland,-77.26130755,40.1625372,15,0,0,2020-03-26 23:48:35
US,Tennessee,Cumberland,-84.99840585,35.95271721,6,0,0,2020-03-26 23:48:35
US,Virginia,Cumberland,-78.24398086,37.51328851,0,0,0,2020-03-26 23:48:35
US,Nebraska,Cuming,-96.78730772,41.91637624,0,0,0,2020-03-26 23:48:35
US,North Carolina,Currituck,-75.95876401,36.36123664,0,0,0,2020-03-26 23:48:35
US,New Mexico,Curry,-103.3468876,34.57421077,1,0,0,2020-03-26 23:48:35
US,Oregon,Curry,-124.157282,42.45911325,0,0,0,2020-03-26 23:48:35
US,Colorado,Custer,-105.3683478,38.10883162,0,0,0,2020-03-26 23:48:35
US,Idaho,Custer,-114.2855494,44.24186819,1,0,0,2020-03-26 23:48:35
US,Montana,Custer,-105.57375259999998,46.25319932,0,0,0,2020-03-26 23:48:35
US,Nebraska,Custer,-99.72805369,41.39374521,0,0,0,2020-03-26 23:48:35
US,Oklahoma,Custer,-99.00170785,35.63853802,3,0,0,2020-03-26 23:48:35
US,South Dakota,Custer,-103.4534521,43.67741105,0,0,0,2020-03-26 23:48:35
US,Ohio,Cuyahoga,-81.65918339,41.424119,259,2,0,2020-03-26 23:48:35
US,Georgia,Dade,-85.50490424,34.854916700000004,0,0,0,2020-03-26 23:48:35
US,Missouri,Dade,-93.8503345,37.431814,0,0,0,2020-03-26 23:48:35
US,Utah,Daggett,-109.5121093,40.88798265,0,0,0,2020-03-26 23:48:35
US,Minnesota,Dakota,-93.06299363,44.67172617,25,0,0,2020-03-26 23:48:35
US,Nebraska,Dakota,-96.56656425,42.39040144,0,0,0,2020-03-26 23:48:35
US,Alabama,Dale,-85.61095742,31.43037123,0,0,0,2020-03-26 23:48:35
US,Texas,Dallam,-102.6020725,36.27787176,0,0,0,2020-03-26 23:48:35
US,Alabama,Dallas,-87.10866709999998,32.32688101,2,0,0,2020-03-26 23:48:35
US,Arkansas,Dallas,-92.65167437,33.97042763,0,0,0,2020-03-26 23:48:35
US,Iowa,Dallas,-94.04127625,41.68560356,7,0,0,2020-03-26 23:48:35
US,Missouri,Dallas,-93.02127031,37.6811355,0,0,0,2020-03-26 23:48:35
US,Texas,Dallas,-96.7779605,32.76670599,303,7,0,2020-03-26 23:48:35
US,Wisconsin,Dane,-89.41733797,43.06601594,134,1,0,2020-03-26 23:48:35
US,Montana,Daniels,-105.54763429999998,48.78420029,0,0,0,2020-03-26 23:48:35
US,Virginia,Danville,-79.40395668,36.58022376,2,0,0,2020-03-26 23:48:35
US,North Carolina,Dare,-75.71767334,35.66520691,1,0,0,2020-03-26 23:48:35
US,Ohio,Darke,-84.6194517,40.13412966,1,0,0,2020-03-26 23:48:35
US,South Carolina,Darlington,-79.96027485,34.33358335,8,0,0,2020-03-26 23:48:35
US,Pennsylvania,Dauphin,-76.77993242,40.41377078,13,0,0,2020-03-26 23:48:35
US,North Carolina,Davidson,-80.21256572,35.79115496,4,0,0,2020-03-26 23:48:35
US,Tennessee,Davidson,-86.78646056,36.17007426,293,2,0,2020-03-26 23:48:35
US,North Carolina,Davie,-80.54496571,35.93099927,1,0,0,2020-03-26 23:48:35
US,Indiana,Daviess,-87.07185406,38.70186039,0,0,0,2020-03-26 23:48:35
US,Kentucky,Daviess,-87.09019479999998,37.73028906,14,0,0,2020-03-26 23:48:35
US,Missouri,Daviess,-93.98519678,39.96145298,0,0,0,2020-03-26 23:48:35
US,Iowa,Davis,-92.41005468,40.74773536,0,0,0,2020-03-26 23:48:35
US,Utah,Davis,-112.1139997,40.99001837,39,1,0,2020-03-26 23:48:35
US,South Dakota,Davison,-98.14458906,43.67490933,2,0,0,2020-03-26 23:48:35
US,Nebraska,Dawes,-103.1313774,42.71985036,0,0,0,2020-03-26 23:48:35
US,Georgia,Dawson,-84.16964071,34.44244079,3,0,0,2020-03-26 23:48:35
US,Montana,Dawson,-104.89444170000002,47.26584855,0,0,0,2020-03-26 23:48:35
US,Nebraska,Dawson,-99.8201461,40.87028216,0,0,0,2020-03-26 23:48:35
US,Texas,Dawson,-101.9477242,32.74255572,0,0,0,2020-03-26 23:48:35
US,South Dakota,Day,-97.60737498,45.367281,0,0,0,2020-03-26 23:48:35
US,New Mexico,De Baca,-104.4117842,34.34274529,0,0,0,2020-03-26 23:48:35
US,Louisiana,De Soto,-93.74130302,32.05457447,11,1,0,2020-03-26 23:48:35
US,Illinois,De Witt,-88.90959682,40.17514519,0,0,0,2020-03-26 23:48:35
US,Alabama,DeKalb,-85.80782906,34.45946862,1,0,0,2020-03-26 23:48:35
US,Georgia,DeKalb,-84.22396017,33.76944049,129,0,0,2020-03-26 23:48:35
US,Illinois,DeKalb,-88.76958483,41.89373302,1,0,0,2020-03-26 23:48:35
US,Indiana,DeKalb,-84.99906934,41.39804622,1,0,0,2020-03-26 23:48:35
US,Missouri,DeKalb,-94.40476508,39.89201062,0,0,0,2020-03-26 23:48:35
US,Tennessee,DeKalb,-85.83689361,35.97616272,0,0,0,2020-03-26 23:48:35
US,Florida,DeSoto,-81.80941373,27.18677893,5,0,0,2020-03-26 23:48:35
US,Mississippi,DeSoto,-89.99091418,34.87625235,49,0,0,2020-03-26 23:48:35
US,Texas,DeWitt,-97.3568117,29.08101855,2,0,0,2020-03-26 23:48:35
US,Texas,Deaf Smith,-102.6054267,34.96522957,2,0,0,2020-03-26 23:48:35
US,Indiana,Dearborn,-84.97333539,39.14647946,3,0,0,2020-03-26 23:48:35
US,Georgia,Decatur,-84.57619536,30.87967778,2,0,0,2020-03-26 23:48:35
US,Indiana,Decatur,-85.50087166,39.30712658,13,0,0,2020-03-26 23:48:35
US,Iowa,Decatur,-93.78645949,40.73742757,0,0,0,2020-03-26 23:48:35
US,Kansas,Decatur,-100.4594081,39.78468441,0,0,0,2020-03-26 23:48:35
US,Tennessee,Decatur,-88.11043779,35.60048904,0,0,0,2020-03-26 23:48:35
US,Montana,Deer Lodge,-113.073353,46.05953325,0,0,0,2020-03-26 23:48:35
US,Ohio,Defiance,-84.49076944,41.32398837,2,0,0,2020-03-26 23:48:35
US,California,Del Norte,-123.8974063,41.74228275,0,0,0,2020-03-26 23:48:35
US,Indiana,Delaware,-85.39732772,40.22787247,7,1,0,2020-03-26 23:48:35
US,Iowa,Delaware,-91.3664492,42.47104597,0,0,0,2020-03-26 23:48:35
US,New York,Delaware,-74.96709306,42.19837623,7,0,0,2020-03-26 23:48:35
US,Ohio,Delaware,-83.00457058,40.27942393,15,0,0,2020-03-26 23:48:35
US,Oklahoma,Delaware,-94.80325046,36.40823634,1,0,0,2020-03-26 23:48:35
US,Pennsylvania,Delaware,-75.40243663,39.91680171,156,2,0,2020-03-26 23:48:35
US,Colorado,Delta,-107.8631342,38.86246243,1,0,0,2020-03-26 23:48:35
US,Michigan,Delta,-86.9080745,45.90484910000001,0,0,0,2020-03-26 23:48:35
US,Texas,Delta,-95.66921122,33.38570922,0,0,0,2020-03-26 23:48:35
US,Alaska,Denali,-150.0076108,63.67264044,0,0,0,2020-03-26 23:48:35
US,Missouri,Dent,-91.50790473,37.60663134,0,0,0,2020-03-26 23:48:35
US,Texas,Denton,-97.11691153,33.20521901,83,1,0,2020-03-26 23:48:35
US,Colorado,Denver,-104.8725695,39.76018276,262,3,0,2020-03-26 23:48:35
US,Iowa,Des Moines,-91.18326592,40.92012606,1,0,0,2020-03-26 23:48:35
US,Oregon,Deschutes,-121.2289121,43.91570171,15,0,0,2020-03-26 23:48:35
US,Arkansas,Desha,-91.25500948,33.83011025,2,0,0,2020-03-26 23:48:35
US,Nebraska,Deuel,-102.3333331,41.11168186,0,0,0,2020-03-26 23:48:35
US,South Dakota,Deuel,-96.66943645,44.75994309,0,0,0,2020-03-26 23:48:35
US,Oklahoma,Dewey,-99.00730714,35.98772922,0,0,0,2020-03-26 23:48:35
US,South Dakota,Dewey,-100.8709139,45.15639647,0,0,0,2020-03-26 23:48:35
US,Texas,Dickens,-100.7788855,33.61616822,0,0,0,2020-03-26 23:48:35
US,Virginia,Dickenson,-82.35124171,37.12560977,0,0,0,2020-03-26 23:48:35
US,North Dakota,Dickey,-98.5049008,46.11017712,0,0,0,2020-03-26 23:48:35
US,Iowa,Dickinson,-95.1510206,43.37787725,0,0,0,2020-03-26 23:48:35
US,Kansas,Dickinson,-97.15532383,38.86600962,0,0,0,2020-03-26 23:48:35
US,Michigan,Dickinson,-87.86961634,46.00999672,0,0,0,2020-03-26 23:48:35
US,Tennessee,Dickson,-87.35891709,36.14669837,7,0,0,2020-03-26 23:48:35
US,Alaska,Dillingham,-158.23819419999995,59.79603738,0,0,0,2020-03-26 23:48:35
US,South Carolina,Dillon,-79.37741872,34.39007791,1,0,0,2020-03-26 23:48:35
US,Texas,Dimmit,-99.75645095,28.42270064,0,0,0,2020-03-26 23:48:35
US,Virginia,Dinwiddie,-77.63451754,37.07544585,0,0,0,2020-03-26 23:48:35
US,District of Columbia,District of Columbia,-77.01655992,38.90417773,231,3,0,2020-03-26 23:48:35
US,North Dakota,Divide,-103.4873611,48.814938700000006,0,0,0,2020-03-26 23:48:35
US,Florida,Dixie,-83.15724673,29.60631086,0,0,0,2020-03-26 23:48:35
US,Nebraska,Dixon,-96.86782408,42.49188363,0,0,0,2020-03-26 23:48:35
US,West Virginia,Doddridge,-80.70671527,39.27057157,0,0,0,2020-03-26 23:48:35
US,Georgia,Dodge,-83.16948926,32.17265114,1,0,0,2020-03-26 23:48:35
US,Minnesota,Dodge,-92.86244324,44.02238415,5,0,0,2020-03-26 23:48:35
US,Nebraska,Dodge,-96.65598179,41.58071748,0,0,0,2020-03-26 23:48:35
US,Wisconsin,Dodge,-88.70928178,43.41576662,3,0,0,2020-03-26 23:48:35
US,Colorado,Dolores,-108.5211585,37.75208676,0,0,0,2020-03-26 23:48:35
US,New Mexico,Dona Ana,-106.83293870000001,32.35275771,13,0,0,2020-03-26 23:48:35
US,Kansas,Doniphan,-95.14056866,39.79067154,1,0,0,2020-03-26 23:48:35
US,Texas,Donley,-100.8140093,34.96517499,0,0,0,2020-03-26 23:48:35
US,Georgia,Dooly,-83.79746561,32.15630737,0,0,0,2020-03-26 23:48:35
US,Wisconsin,Door,-87.30002707,44.95856458,0,0,0,2020-03-26 23:48:35
US,Maryland,Dorchester,-76.02752426,38.45413522,0,0,0,2020-03-26 23:48:35
US,South Carolina,Dorchester,-80.40502652,33.0794369,4,0,0,2020-03-26 23:48:35
US,Georgia,Dougherty,-84.21722377,31.53328528,156,6,0,2020-03-26 23:48:35
US,Colorado,Douglas,-104.930001,39.33133796,67,0,0,2020-03-26 23:48:35
US,Georgia,Douglas,-84.77026156,33.70291126,18,0,0,2020-03-26 23:48:35
US,Illinois,Douglas,-88.21854195,39.76768052,1,0,0,2020-03-26 23:48:35
US,Kansas,Douglas,-95.2925121,38.88503636,13,0,0,2020-03-26 23:48:35
US,Minnesota,Douglas,-95.45335469,45.93348491,0,0,0,2020-03-26 23:48:35
US,Missouri,Douglas,-92.49905109,36.9325593,0,0,0,2020-03-26 23:48:35
US,Nebraska,Douglas,-96.15085305,41.29518299,44,0,0,2020-03-26 23:48:35
US,Nevada,Douglas,-119.6171333,38.912862,3,0,0,2020-03-26 23:48:35
US,Oregon,Douglas,-123.167291,43.27941273,3,0,0,2020-03-26 23:48:35
US,South Dakota,Douglas,-98.36978007,43.38520741,0,0,0,2020-03-26 23:48:35
US,Washington,Douglas,-119.692937,47.7361335,5,0,0,2020-03-26 23:48:35
US,Wisconsin,Douglas,-91.91595768,46.43222285,4,0,0,2020-03-26 23:48:35
US,New Mexico,Doa Ana,-106.8329387,32.35275771,0,0,0,2020-03-26 23:48:35
US,Arkansas,Drew,-91.71777921,33.59035001,1,0,0,2020-03-26 23:48:35
US,Illinois,DuPage,-88.08642662,41.85116968,131,1,0,2020-03-26 23:48:35
US,Indiana,Dubois,-86.87924170000002,38.36597551,1,0,0,2020-03-26 23:48:35
US,Iowa,Dubuque,-90.88181925,42.46815349,6,1,0,2020-03-26 23:48:35
US,Utah,Duchesne,-110.425237,40.29772254,0,0,0,2020-03-26 23:48:35
US,Massachusetts,Dukes,-70.68763497,41.40674725,0,0,0,2020-03-26 23:48:35
US,Massachusetts,Dukes and Nantucket,-70.68763497,41.40674725,3,0,0,2020-03-26 23:48:35
US,Nebraska,Dundy,-101.6876522,40.17638677,0,0,0,2020-03-26 23:48:35
US,Missouri,Dunklin,-90.09122243,36.27167174,2,0,0,2020-03-26 23:48:35
US,North Dakota,Dunn,-102.6160468,47.35423935,1,0,0,2020-03-26 23:48:35
US,Wisconsin,Dunn,-91.8962481,44.94562799,1,0,0,2020-03-26 23:48:35
US,North Carolina,Duplin,-77.93140529,34.93449805,1,0,0,2020-03-26 23:48:35
US,North Carolina,Durham,-78.87608331,36.03638492,93,0,0,2020-03-26 23:48:35
US,New York,Dutchess,-73.74356679,41.76486060000001,190,1,0,2020-03-26 23:48:35
US,Florida,Duval,-81.66976468,30.33225875,74,3,0,2020-03-26 23:48:35
US,Texas,Duval,-98.50864568,27.68184592,0,0,0,2020-03-26 23:48:35
US,Tennessee,Dyer,-89.41542855,36.05931946,3,0,0,2020-03-26 23:48:35
US,Colorado,Eagle,-106.6933637,39.62754308,147,1,0,2020-03-26 23:48:35
US,Georgia,Early,-84.90255207,31.32155345,7,1,0,2020-03-26 23:48:35
US,Louisiana,East Baton Rouge,-91.09777565,30.53842039,105,4,0,2020-03-26 23:48:35
US,Louisiana,East Carroll,-91.23425694,32.73926954,0,0,0,2020-03-26 23:48:35
US,Louisiana,East Feliciana,-91.04976723,30.84425359,4,0,0,2020-03-26 23:48:35
US,Texas,Eastland,-98.83243566,32.32743996,2,0,0,2020-03-26 23:48:35
US,Michigan,Eaton,-84.83740035,42.59599185,4,0,0,2020-03-26 23:48:35
US,Wisconsin,Eau Claire,-91.28609183,44.726614,6,0,0,2020-03-26 23:48:35
US,Georgia,Echols,-82.89687287,30.71101099,0,0,0,2020-03-26 23:48:35
US,Texas,Ector,-102.5429428,31.86898877,0,0,0,2020-03-26 23:48:35
US,New Mexico,Eddy,-104.3053527,32.47167456,1,1,0,2020-03-26 23:48:35
US,North Dakota,Eddy,-98.90432337,47.71701474,0,0,0,2020-03-26 23:48:35
US,Illinois,Edgar,-87.74759563,39.6809186,0,0,0,2020-03-26 23:48:35
US,North Carolina,Edgecombe,-77.59436892,35.91230639,0,0,0,2020-03-26 23:48:35
US,South Carolina,Edgefield,-81.96231108,33.77221995,1,0,0,2020-03-26 23:48:35
US,Kentucky,Edmonson,-86.23955613,37.21218923,0,0,0,2020-03-26 23:48:35
US,South Dakota,Edmunds,-99.21545423,45.41846445,0,0,0,2020-03-26 23:48:35
US,Illinois,Edwards,-88.05720863,38.41353228,0,0,0,2020-03-26 23:48:35
US,Kansas,Edwards,-99.31263309,37.88735543,0,0,0,2020-03-26 23:48:35
US,Texas,Edwards,-100.304252,29.98202582,0,0,0,2020-03-26 23:48:35
US,Georgia,Effingham,-81.34280942,32.36616021,3,0,0,2020-03-26 23:48:35
US,Illinois,Effingham,-88.58969584,39.05935711,0,0,0,2020-03-26 23:48:35
US,California,El Dorado,-120.5233166,38.77965956,3,0,0,2020-03-26 23:48:35
US,Colorado,El Paso,-104.5251411,38.83240149,137,5,0,2020-03-26 23:48:35
US,Texas,El Paso,-106.2363275,31.76980765,28,0,0,2020-03-26 23:48:35
US,Colorado,Elbert,-104.1358721,39.28656773,3,0,0,2020-03-26 23:48:35
US,Georgia,Elbert,-82.83936148,34.11302332,0,0,0,2020-03-26 23:48:35
US,Kansas,Elk,-96.24369667,37.45338105,0,0,0,2020-03-26 23:48:35
US,Pennsylvania,Elk,-78.64524744,41.42822061,0,0,0,2020-03-26 23:48:35
US,Indiana,Elkhart,-85.85875695,41.59761169,7,0,0,2020-03-26 23:48:35
US,Nevada,Elko,-115.3577619,41.14531606,2,0,0,2020-03-26 23:48:35
US,Kentucky,Elliott,-83.09771563,38.11624059,0,0,0,2020-03-26 23:48:35
US,Kansas,Ellis,-99.31751551,38.91458712,0,0,0,2020-03-26 23:48:35
US,Oklahoma,Ellis,-99.75324573,36.2180194,0,0,0,2020-03-26 23:48:35
US,Texas,Ellis,-96.79371841,32.34894117,7,0,0,2020-03-26 23:48:35
US,Kansas,Ellsworth,-98.20462799,38.69677695,0,0,0,2020-03-26 23:48:35
US,Alabama,Elmore,-86.14415284,32.59785413,10,0,0,2020-03-26 23:48:35
US,Idaho,Elmore,-115.4701578,43.3507101,0,0,0,2020-03-26 23:48:35
US,Georgia,Emanuel,-82.30239915,32.59221302,0,0,0,2020-03-26 23:48:35
US,Utah,Emery,-110.7013958,38.99617072,0,0,0,2020-03-26 23:48:35
US,Iowa,Emmet,-94.67858943,43.37782951,0,0,0,2020-03-26 23:48:35
US,Michigan,Emmet,-84.89083249,45.52625509,2,0,0,2020-03-26 23:48:35
US,North Dakota,Emmons,-100.2389766,46.28398398,0,0,0,2020-03-26 23:48:35
US,Virginia,Emporia,-77.53406129,36.69455571,0,0,0,2020-03-26 23:48:35
US,Texas,Erath,-98.21773417,32.23602653,1,0,0,2020-03-26 23:48:35
US,New York,Erie,-78.73063652,42.76249024,206,2,0,2020-03-26 23:48:35
US,Ohio,Erie,-82.62904521,41.36796058,3,1,0,2020-03-26 23:48:35
US,Pennsylvania,Erie,-80.03301954,41.99253829,5,0,0,2020-03-26 23:48:35
US,Alabama,Escambia,-87.15918694,31.1256789,0,0,0,2020-03-26 23:48:35
US,Florida,Escambia,-87.37284571,30.67652764,19,0,0,2020-03-26 23:48:35
US,Nevada,Esmeralda,-117.6319999,37.78436681,0,0,0,2020-03-26 23:48:35
US,Massachusetts,Essex,-70.94687179,42.6687626,247,2,0,2020-03-26 23:48:35
US,New Jersey,Essex,-74.24657979,40.78681335,609,4,0,2020-03-26 23:48:35
US,New York,Essex,-73.77297842,44.11630765,5,0,0,2020-03-26 23:48:35
US,Vermont,Essex,-71.73579864,44.72736416,0,0,0,2020-03-26 23:48:35
US,Virginia,Essex,-76.94230311,37.93357639,0,0,0,2020-03-26 23:48:35
US,Kentucky,Estill,-83.95956369,37.69241417,0,0,0,2020-03-26 23:48:35
US,Alabama,Etowah,-86.04051873,34.04567266,4,0,0,2020-03-26 23:48:35
US,Nevada,Eureka,-116.2683204,39.98100864,0,0,0,2020-03-26 23:48:35
US,Louisiana,Evangeline,-92.39915924,30.72985248,2,0,0,2020-03-26 23:48:35
US,Georgia,Evans,-81.8870105,32.15328841,0,0,0,2020-03-26 23:48:35
US,Alaska,Fairbanks North Star,-146.5692662,64.80726247,11,0,0,2020-03-26 23:48:35
US,Virginia,Fairfax,-77.27565836,38.83677558,79,1,0,2020-03-26 23:48:35
US,Virginia,Fairfax City,-77.29779640000002,38.85157547,1,0,0,2020-03-26 23:48:35
US,Connecticut,Fairfield,-73.3881171,41.26809896,607,13,0,2020-03-26 23:48:35
US,Ohio,Fairfield,-82.63088163,39.75107189,6,0,0,2020-03-26 23:48:35
US,South Carolina,Fairfield,-81.1195624,34.39287073,3,0,0,2020-03-26 23:48:35
US,South Dakota,Fall River,-103.5275691,43.23929297,0,0,0,2020-03-26 23:48:35
US,Montana,Fallon,-104.4183565,46.33478338,0,0,0,2020-03-26 23:48:35
US,Texas,Falls,-96.93630086,31.25350609,1,0,0,2020-03-26 23:48:35
US,Virginia,Falls Church,-77.17560759,38.88485255,0,0,0,2020-03-26 23:48:35
US,Georgia,Fannin,-84.316964,34.86430205,1,0,0,2020-03-26 23:48:35
US,Texas,Fannin,-96.10751083,33.59564294,1,0,0,2020-03-26 23:48:35
US,Minnesota,Faribault,-93.94787458,43.67381499,0,0,0,2020-03-26 23:48:35
US,South Dakota,Faulk,-99.14535601,45.07082625,0,0,0,2020-03-26 23:48:35
US,Arkansas,Faulkner,-92.33717519,35.14719007,24,0,0,2020-03-26 23:48:35
US,Virginia,Fauquier,-77.80647472,38.73564842,1,0,0,2020-03-26 23:48:35
US,Alabama,Fayette,-87.73886638,33.72076938,0,0,0,2020-03-26 23:48:35
US,Georgia,Fayette,-84.49089434,33.41357794,14,1,0,2020-03-26 23:48:35
US,Illinois,Fayette,-89.02452658,39.00072038,0,0,0,2020-03-26 23:48:35
US,Indiana,Fayette,-85.17797541,39.63684962,3,0,0,2020-03-26 23:48:35
US,Iowa,Fayette,-91.8441231,42.86271799,1,0,0,2020-03-26 23:48:35
US,Kentucky,Fayette,-84.45576892,38.0368225,28,1,0,2020-03-26 23:48:35
US,Ohio,Fayette,-83.4562016,39.56021306,1,0,0,2020-03-26 23:48:35
US,Pennsylvania,Fayette,-79.64291195,39.92041012,8,0,0,2020-03-26 23:48:35
US,Tennessee,Fayette,-89.41399032,35.19615831,3,0,0,2020-03-26 23:48:35
US,Texas,Fayette,-96.92076062,29.87788372,1,0,0,2020-03-26 23:48:35
US,West Virginia,Fayette,-81.08286634,38.02974928,0,0,0,2020-03-26 23:48:35
US,Tennessee,Fentress,-84.92870012,36.38128818,0,0,0,2020-03-26 23:48:35
US,Montana,Fergus,-109.2245206,47.26331584,0,0,0,2020-03-26 23:48:35
US,Washington,Ferry,-118.5154041,48.471143100000006,1,0,0,2020-03-26 23:48:35
US,Minnesota,Fillmore,-92.08980382,43.67394126,3,0,0,2020-03-26 23:48:35
US,Nebraska,Fillmore,-97.59646937,40.52458567,0,0,0,2020-03-26 23:48:35
US,Kansas,Finney,-100.7381938,38.04340344,0,0,0,2020-03-26 23:48:35
US,Texas,Fisher,-100.4019302,32.74281316,0,0,0,2020-03-26 23:48:35
US,Florida,Flagler,-81.31508595,29.45933576,7,0,0,2020-03-26 23:48:35
US,Montana,Flathead,-114.0520569,48.29575866,5,0,0,2020-03-26 23:48:35
US,Kentucky,Fleming,-83.69657514,38.36758311,0,0,0,2020-03-26 23:48:35
US,South Carolina,Florence,-79.70189312,34.02361754,5,2,0,2020-03-26 23:48:35
US,Wisconsin,Florence,-88.39804137,45.84963535,0,0,0,2020-03-26 23:48:35
US,Georgia,Floyd,-85.21577392,34.26268279,16,1,0,2020-03-26 23:48:35
US,Indiana,Floyd,-85.90385377,38.32117957,7,0,0,2020-03-26 23:48:35
US,Iowa,Floyd,-92.78940097,43.06000529999999,0,0,0,2020-03-26 23:48:35
US,Kentucky,Floyd,-82.74750924,37.56213922,0,0,0,2020-03-26 23:48:35
US,Texas,Floyd,-101.3031546,34.07227468,0,0,0,2020-03-26 23:48:35
US,Virginia,Floyd,-80.36738849,36.9302126,0,0,0,2020-03-26 23:48:35
US,Virginia,Fluvanna,-78.27715475,37.84157909,3,0,0,2020-03-26 23:48:35
US,Texas,Foard,-99.7767797,33.97308618,0,0,0,2020-03-26 23:48:35
US,Wisconsin,Fond du Lac,-88.48885325,43.75354908,17,1,0,2020-03-26 23:48:35
US,Illinois,Ford,-88.22350769,40.59706922,0,0,0,2020-03-26 23:48:35
US,Kansas,Ford,-99.88825298,37.69200114,0,0,0,2020-03-26 23:48:35
US,Pennsylvania,Forest,-79.23229292,41.51095103,0,0,0,2020-03-26 23:48:35
US,Wisconsin,Forest,-88.77084892,45.66678019,0,0,0,2020-03-26 23:48:35
US,Mississippi,Forrest,-89.25832496,31.18961454,16,0,0,2020-03-26 23:48:35
US,Georgia,Forsyth,-84.12315129999998,34.22604035,15,0,0,2020-03-26 23:48:35
US,North Carolina,Forsyth,-80.25459052,36.12859861,17,0,0,2020-03-26 23:48:35
US,Texas,Fort Bend,-95.77219463,29.52704478,86,0,0,2020-03-26 23:48:35
US,North Dakota,Foster,-98.88279923,47.4571084,1,0,0,2020-03-26 23:48:35
US,Indiana,Fountain,-87.24217689,40.12361933,1,0,0,2020-03-26 23:48:35
US,Alabama,Franklin,-87.84289505,34.44235334,3,0,0,2020-03-26 23:48:35
US,Arkansas,Franklin,-93.89299569,35.51202821,0,0,0,2020-03-26 23:48:35
US,Florida,Franklin,-84.82731662,29.83791238,0,0,0,2020-03-26 23:48:35
US,Georgia,Franklin,-83.23159927,34.37525597,0,0,0,2020-03-26 23:48:35
US,Idaho,Franklin,-111.8149666,42.18332217,0,0,0,2020-03-26 23:48:35
US,Illinois,Franklin,-88.92567818,37.99189086,0,0,0,2020-03-26 23:48:35
US,Indiana,Franklin,-85.06062647,39.4142482,13,1,0,2020-03-26 23:48:35
US,Iowa,Franklin,-93.26256925,42.73270384,0,0,0,2020-03-26 23:48:35
US,Kansas,Franklin,-95.28644341,38.56443815,1,0,0,2020-03-26 23:48:35
US,Kentucky,Franklin,-84.87962551,38.2379395,2,0,0,2020-03-26 23:48:35
US,Louisiana,Franklin,-91.67589857,32.13675181,0,0,0,2020-03-26 23:48:35
US,Maine,Franklin,-70.44381045,44.97330019,1,0,0,2020-03-26 23:48:35
US,Massachusetts,Franklin,-72.58602547,42.58119713,16,1,0,2020-03-26 23:48:35
US,Mississippi,Franklin,-90.89672989,31.47786634,2,0,0,2020-03-26 23:48:35
US,Missouri,Franklin,-91.07522826,38.41127108,4,0,0,2020-03-26 23:48:35
US,Nebraska,Franklin,-98.95299073,40.17636348,0,0,0,2020-03-26 23:48:35
US,New York,Franklin,-74.29926032,44.59040891,1,0,0,2020-03-26 23:48:35
US,North Carolina,Franklin,-78.28708884,36.081519,5,0,0,2020-03-26 23:48:35
US,Ohio,Franklin,-83.01115755,39.96995815,109,2,0,2020-03-26 23:48:35
US,Pennsylvania,Franklin,-77.72157791,39.92956518,5,0,0,2020-03-26 23:48:35
US,Tennessee,Franklin,-86.09201039,35.15634626,2,0,0,2020-03-26 23:48:35
US,Texas,Franklin,-95.21917243,33.17653242,0,0,0,2020-03-26 23:48:35
US,Vermont,Franklin,-72.91249563,44.85627605,4,0,0,2020-03-26 23:48:35
US,Virginia,Franklin,-79.88023649,36.99536167,1,0,0,2020-03-26 23:48:35
US,Washington,Franklin,-118.9018212,46.53351425,7,0,0,2020-03-26 23:48:35
US,Virginia,Franklin City,-76.93859681,36.6831435,0,0,0,2020-03-26 23:48:35
US,Maryland,Frederick,-77.39999394,39.47296601,14,0,0,2020-03-26 23:48:35
US,Virginia,Frederick,-78.25974949,39.20172582,2,0,0,2020-03-26 23:48:35
US,Virginia,Fredericksburg,-77.4922454,38.2977863,1,0,0,2020-03-26 23:48:35
US,Minnesota,Freeborn,-93.34884422,43.67385583,0,0,0,2020-03-26 23:48:35
US,Texas,Freestone,-96.15072516,31.70422788,0,0,0,2020-03-26 23:48:35
US,Colorado,Fremont,-105.4399667,38.47362326,1,0,0,2020-03-26 23:48:35
US,Idaho,Fremont,-111.4809943,44.22800938,1,0,0,2020-03-26 23:48:35
US,Iowa,Fremont,-95.60129045,40.74542720000001,0,0,0,2020-03-26 23:48:35
US,Wyoming,Fremont,-108.6296893,43.04183996,14,0,0,2020-03-26 23:48:35
US,California,Fresno,-119.6466953,36.75733899,19,0,0,2020-03-26 23:48:35
US,Texas,Frio,-99.10804207,28.86751206,0,0,0,2020-03-26 23:48:35
US,Nebraska,Frontier,-100.3924658,40.52993007,0,0,0,2020-03-26 23:48:35
US,Arkansas,Fulton,-91.81729127,36.38177105,0,0,0,2020-03-26 23:48:35
US,Georgia,Fulton,-84.46319413,33.79216944,211,2,0,2020-03-26 23:48:35
US,Illinois,Fulton,-90.20862357,40.47289135,0,0,0,2020-03-26 23:48:35
US,Indiana,Fulton,-86.26252745,41.0469907,0,0,0,2020-03-26 23:48:35
US,Kentucky,Fulton,-89.20140068,36.55238827,0,0,0,2020-03-26 23:48:35
US,New York,Fulton,-74.41798804,43.11363907,1,0,0,2020-03-26 23:48:35
US,Ohio,Fulton,-84.12571393,41.60213491,0,0,0,2020-03-26 23:48:35
US,Pennsylvania,Fulton,-78.11163677,39.92913544,0,0,0,2020-03-26 23:48:35
US,Nebraska,Furnas,-99.91247454,40.17642064,0,0,0,2020-03-26 23:48:35
US,Florida,Gadsden,-84.61915825,30.57796289,1,0,0,2020-03-26 23:48:35
US,Nebraska,Gage,-96.68946704,40.26186809,1,0,0,2020-03-26 23:48:35
US,Texas,Gaines,-102.6353295,32.74055318,1,0,0,2020-03-26 23:48:35
US,Virginia,Galax,-80.91703124,36.66601852,0,0,0,2020-03-26 23:48:35
US,Illinois,Gallatin,-88.22953869,37.76430935,0,0,0,2020-03-26 23:48:35
US,Kentucky,Gallatin,-84.8558382,38.75398691,0,0,0,2020-03-26 23:48:35
US,Montana,Gallatin,-111.1692571,45.54486106,38,0,0,2020-03-26 23:48:35
US,Ohio,Gallia,-82.31647569,38.82708533,1,1,0,2020-03-26 23:48:35
US,Texas,Galveston,-94.90469073,29.40167322,40,0,0,2020-03-26 23:48:35
US,Nebraska,Garden,-102.3313973,41.61703149,0,0,0,2020-03-26 23:48:35
US,Colorado,Garfield,-107.902708,39.59921777,16,0,0,2020-03-26 23:48:35
US,Montana,Garfield,-107.0002351,47.27545948,0,0,0,2020-03-26 23:48:35
US,Nebraska,Garfield,-98.99111827,41.91428955,0,0,0,2020-03-26 23:48:35
US,Oklahoma,Garfield,-97.78265517,36.3791334,0,0,0,2020-03-26 23:48:35
US,Utah,Garfield,-111.4418764,37.85447192,0,0,0,2020-03-26 23:48:35
US,Washington,Garfield,-117.5454032,46.43197502,0,0,0,2020-03-26 23:48:35
US,Arkansas,Garland,-93.14921604,34.57692074,18,0,0,2020-03-26 23:48:35
US,Kentucky,Garrard,-84.53289319,37.6388668,0,0,0,2020-03-26 23:48:35
US,Maryland,Garrett,-79.27355126,39.52786077,3,0,0,2020-03-26 23:48:35
US,Oklahoma,Garvin,-97.30811132,34.70418038,2,0,0,2020-03-26 23:48:35
US,Texas,Garza,-101.2984114,33.17969345,0,0,0,2020-03-26 23:48:35
US,Missouri,Gasconade,-91.50847147,38.43947277,0,0,0,2020-03-26 23:48:35
US,North Carolina,Gaston,-81.17477045,35.29373559,12,0,0,2020-03-26 23:48:35
US,North Carolina,Gates,-76.69749701,36.44667547,0,0,0,2020-03-26 23:48:35
US,Kansas,Geary,-96.7577178,38.99871131,0,0,0,2020-03-26 23:48:35
US,Ohio,Geauga,-81.17935342,41.49952319,7,0,0,2020-03-26 23:48:35
US,Idaho,Gem,-116.398376,44.06482372,0,0,0,2020-03-26 23:48:35
US,Michigan,Genesee,-83.70589709,43.02244215,63,2,0,2020-03-26 23:48:35
US,New York,Genesee,-78.19135193,43.0022601,4,0,0,2020-03-26 23:48:35
US,Alabama,Geneva,-85.83572839,31.09389027,0,0,0,2020-03-26 23:48:35
US,Missouri,Gentry,-94.40944419,40.21097916,0,0,0,2020-03-26 23:48:35
US,Mississippi,George,-88.64436789,30.86259065,1,0,0,2020-03-26 23:48:35
US,South Carolina,Georgetown,-79.33202141,33.43443342,2,0,0,2020-03-26 23:48:35
US,Indiana,Gibson,-87.58054938,38.30393723,3,0,0,2020-03-26 23:48:35
US,Tennessee,Gibson,-88.93358327,35.99438059,2,0,0,2020-03-26 23:48:35
US,Arizona,Gila,-110.8132779,33.80190085,0,0,0,2020-03-26 23:48:35
US,Florida,Gilchrist,-82.79880657,29.72856978,0,0,0,2020-03-26 23:48:35
US,Tennessee,Giles,-87.03992678,35.20222469,0,0,0,2020-03-26 23:48:35
US,Virginia,Giles,-80.70636931,37.31234791,0,0,0,2020-03-26 23:48:35
US,Texas,Gillespie,-98.94676915,30.31824095,0,0,0,2020-03-26 23:48:35
US,Oregon,Gilliam,-120.2048869,45.37160076,0,0,0,2020-03-26 23:48:35
US,Georgia,Gilmer,-84.45802506,34.69316688,0,0,0,2020-03-26 23:48:35
US,West Virginia,Gilmer,-80.85952723,38.9251277,0,0,0,2020-03-26 23:48:35
US,Colorado,Gilpin,-105.5252597,39.85646523,0,0,0,2020-03-26 23:48:35
US,Montana,Glacier,-112.9934235,48.70513576,0,0,0,2020-03-26 23:48:35
US,Florida,Glades,-81.18996211,26.95635849,0,0,0,2020-03-26 23:48:35
US,Michigan,Gladwin,-84.38774817,43.98901072,2,0,0,2020-03-26 23:48:35
US,Georgia,Glascock,-82.61297636,33.22879932,0,0,0,2020-03-26 23:48:35
US,Texas,Glasscock,-101.5207776,31.86942909,0,0,0,2020-03-26 23:48:35
US,California,Glenn,-122.3938452,39.59875897,0,0,0,2020-03-26 23:48:35
US,New Jersey,Gloucester,-75.13995546,39.71581067,33,0,0,2020-03-26 23:48:35
US,Virginia,Gloucester,-76.53524337,37.40809042,2,0,0,2020-03-26 23:48:35
US,Georgia,Glynn,-81.53811412,31.23279254,5,0,0,2020-03-26 23:48:35
US,Michigan,Gogebic,-89.69377193,46.40862701,0,0,0,2020-03-26 23:48:35
US,Montana,Golden Valley,-109.1768522,46.3816474,0,0,0,2020-03-26 23:48:35
US,North Dakota,Golden Valley,-103.8465421,46.94022281,0,0,0,2020-03-26 23:48:35
US,Texas,Goliad,-97.42760647,28.65696592,0,0,0,2020-03-26 23:48:35
US,Texas,Gonzales,-97.49424032,29.45634206,0,0,0,2020-03-26 23:48:35
US,Virginia,Goochland,-77.90381514,37.71714806,3,0,0,2020-03-26 23:48:35
US,Minnesota,Goodhue,-92.7234195,44.40849741,1,0,0,2020-03-26 23:48:35
US,Idaho,Gooding,-114.8108306,42.96927962,0,0,0,2020-03-26 23:48:35
US,Georgia,Gordon,-84.87296253,34.50487351,9,0,0,2020-03-26 23:48:35
US,Wyoming,Goshen,-104.3534743,42.08798185,0,0,0,2020-03-26 23:48:35
US,Nebraska,Gosper,-99.83020279,40.51481965,0,0,0,2020-03-26 23:48:35
US,Kansas,Gove,-100.4829321,38.91588178,0,0,0,2020-03-26 23:48:35
US,Georgia,Grady,-84.23418364,30.87454847,0,0,0,2020-03-26 23:48:35
US,Oklahoma,Grady,-97.88339847,35.0167709,2,0,0,2020-03-26 23:48:35
US,New Hampshire,Grafton,-71.82057197,43.93779815,22,0,0,2020-03-26 23:48:35
US,Arizona,Graham,-109.8882178,32.93166885,2,0,0,2020-03-26 23:48:35
US,Kansas,Graham,-99.88332493,39.34987223,0,0,0,2020-03-26 23:48:35
US,North Carolina,Graham,-83.83369267,35.3506925,0,0,0,2020-03-26 23:48:35
US,Tennessee,Grainger,-83.51254721,36.27469206,0,0,0,2020-03-26 23:48:35
US,Colorado,Grand,-106.1178042,40.10603347,2,0,0,2020-03-26 23:48:35
US,Utah,Grand,-109.5704487,38.98103848,0,0,0,2020-03-26 23:48:35
US,North Dakota,Grand Forks,-97.45450447,47.92093639,0,0,0,2020-03-26 23:48:35
US,Vermont,Grand Isle,-73.29679772,44.7975824,0,0,0,2020-03-26 23:48:35
US,Michigan,Grand Traverse,-85.55585247,44.69565625,3,0,0,2020-03-26 23:48:35
US,Montana,Granite,-113.4414186,46.40605220000001,0,0,0,2020-03-26 23:48:35
US,Arkansas,Grant,-92.42320562,34.29017991,3,0,0,2020-03-26 23:48:35
US,Indiana,Grant,-85.65468702,40.51587228,3,0,0,2020-03-26 23:48:35
US,Kansas,Grant,-101.3079758,37.56227336,0,0,0,2020-03-26 23:48:35
US,Kentucky,Grant,-84.62415957,38.64962758,0,0,0,2020-03-26 23:48:35
US,Louisiana,Grant,-92.56124347,31.59882456,1,0,0,2020-03-26 23:48:35
US,Minnesota,Grant,-96.01139609,45.93424769,0,0,0,2020-03-26 23:48:35
US,Nebraska,Grant,-101.740701,41.91528587,0,0,0,2020-03-26 23:48:35
US,New Mexico,Grant,-108.3827845,32.73911281,0,0,0,2020-03-26 23:48:35
US,North Dakota,Grant,-101.6390013,46.35821257,0,0,0,2020-03-26 23:48:35
US,Oklahoma,Grant,-97.78638765,36.796297,0,0,0,2020-03-26 23:48:35
US,Oregon,Grant,-119.0068631,44.49024544,1,0,0,2020-03-26 23:48:35
US,South Dakota,Grant,-96.77002276,45.1723937,0,0,0,2020-03-26 23:48:35
US,Washington,Grant,-119.4500749,47.20753737,33,1,0,2020-03-26 23:48:35
US,West Virginia,Grant,-79.19440518,39.10314817,0,0,0,2020-03-26 23:48:35
US,Wisconsin,Grant,-90.7063218,42.8671731,1,0,0,2020-03-26 23:48:35
US,North Carolina,Granville,-78.65184241,36.30337451,1,0,0,2020-03-26 23:48:35
US,Michigan,Gratiot,-84.60505416,43.29265605,0,0,0,2020-03-26 23:48:35
US,Kentucky,Graves,-88.65143315,36.72292505,0,0,0,2020-03-26 23:48:35
US,Kansas,Gray,-100.4369088,37.73836671,0,0,0,2020-03-26 23:48:35
US,Texas,Gray,-100.8129222,35.40081878,0,0,0,2020-03-26 23:48:35
US,Washington,Grays Harbor,-123.7820567,47.14003705,1,0,0,2020-03-26 23:48:35
US,Kentucky,Grayson,-86.34248968,37.46231118,0,0,0,2020-03-26 23:48:35
US,Texas,Grayson,-96.67753461,33.62744998,2,0,0,2020-03-26 23:48:35
US,Virginia,Grayson,-81.23215889,36.65677234,0,0,0,2020-03-26 23:48:35
US,Kansas,Greeley,-101.8061079,38.4808095,0,0,0,2020-03-26 23:48:35
US,Nebraska,Greeley,-98.52150266,41.56742671,0,0,0,2020-03-26 23:48:35
US,Kentucky,Green,-85.5540745,37.26484328,0,0,0,2020-03-26 23:48:35
US,Wisconsin,Green,-89.60243287,42.6794956,1,0,0,2020-03-26 23:48:35
US,Wisconsin,Green Lake,-89.04679553,43.80025981,0,0,0,2020-03-26 23:48:35
US,West Virginia,Greenbrier,-80.45335881,37.9463652,0,0,0,2020-03-26 23:48:35
US,Alabama,Greene,-87.95684022,32.85504247,0,0,0,2020-03-26 23:48:35
US,Arkansas,Greene,-90.55832668,36.11735460000001,1,0,0,2020-03-26 23:48:35
US,Georgia,Greene,-83.17139104,33.5769205,1,0,0,2020-03-26 23:48:35
US,Illinois,Greene,-90.388865,39.35907414,0,0,0,2020-03-26 23:48:35
US,Indiana,Greene,-86.96223202,39.03630547,0,0,0,2020-03-26 23:48:35
US,Iowa,Greene,-94.39658081,42.03614551,0,0,0,2020-03-26 23:48:35
US,Mississippi,Greene,-88.63922281,31.21444233,0,0,0,2020-03-26 23:48:35
US,Missouri,Greene,-93.34230916,37.2575872,25,3,0,2020-03-26 23:48:35
US,New York,Greene,-74.12384884,42.275797,5,0,0,2020-03-26 23:48:35
US,North Carolina,Greene,-77.67578087,35.48544173,0,0,0,2020-03-26 23:48:35
US,Ohio,Greene,-83.89032084,39.69116283,3,0,0,2020-03-26 23:48:35
US,Pennsylvania,Greene,-80.22357106,39.85746531,3,0,0,2020-03-26 23:48:35
US,Tennessee,Greene,-82.84691273,36.17470125,8,0,0,2020-03-26 23:48:35
US,Virginia,Greene,-78.46525378,38.29545894,0,0,0,2020-03-26 23:48:35
US,Arizona,Greenlee,-109.2405279,33.21498827,0,0,0,2020-03-26 23:48:35
US,Virginia,Greensville,-77.56351439,36.67878901,0,0,0,2020-03-26 23:48:35
US,Kentucky,Greenup,-82.9215658,38.54332505,0,0,0,2020-03-26 23:48:35
US,South Carolina,Greenville,-82.37295012,34.89502264,50,0,0,2020-03-26 23:48:35
US,Kansas,Greenwood,-96.23250453,37.8774388,0,0,0,2020-03-26 23:48:35
US,South Carolina,Greenwood,-82.12715789,34.15272415,2,0,0,2020-03-26 23:48:35
US,Oklahoma,Greer,-99.5605612,34.93535801,0,0,0,2020-03-26 23:48:35
US,Texas,Gregg,-94.81591935,32.47940482,4,0,0,2020-03-26 23:48:35
US,South Dakota,Gregory,-99.18883902,43.19419064,0,0,0,2020-03-26 23:48:35
US,Mississippi,Grenada,-89.80245083,33.77036166,2,0,0,2020-03-26 23:48:35
US,North Dakota,Griggs,-98.23850925,47.45785838,0,0,0,2020-03-26 23:48:35
US,Texas,Grimes,-95.98902499,30.54579585,2,0,0,2020-03-26 23:48:35
US,Illinois,Grundy,-88.41905692,41.28569601,1,0,0,2020-03-26 23:48:35
US,Iowa,Grundy,-92.78829551,42.40183723,0,0,0,2020-03-26 23:48:35
US,Missouri,Grundy,-93.56509276,40.11406587,0,0,0,2020-03-26 23:48:35
US,Tennessee,Grundy,-85.72142731,35.38433717,1,0,0,2020-03-26 23:48:35
US,New Mexico,Guadalupe,-104.790669,34.86319296,0,0,0,2020-03-26 23:48:35
US,Texas,Guadalupe,-97.94786822,29.58165339,9,0,0,2020-03-26 23:48:35
US,Ohio,Guernsey,-81.49248905,40.05026529,0,0,0,2020-03-26 23:48:35
US,North Carolina,Guilford,-79.78824948,36.07959451,24,0,0,2020-03-26 23:48:35
US,Florida,Gulf,-85.24270990000002,29.93543004,0,0,0,2020-03-26 23:48:35
US,Colorado,Gunnison,-107.0320729,38.66611652,57,1,0,2020-03-26 23:48:35
US,Iowa,Guthrie,-94.50111014,41.68378965,0,0,0,2020-03-26 23:48:35
US,Georgia,Gwinnett,-84.02137802,33.96044201,75,1,0,2020-03-26 23:48:35
US,South Dakota,Haakon,-101.539099,44.29299053,0,0,0,2020-03-26 23:48:35
US,Georgia,Habersham,-83.53094677,34.63331566,0,0,0,2020-03-26 23:48:35
US,Alaska,Haines,-135.4679843,59.09893571,0,0,0,2020-03-26 23:48:35
US,Alabama,Hale,-87.63284988,32.76039258,0,0,0,2020-03-26 23:48:35
US,Texas,Hale,-101.8268114,34.07044901,1,0,0,2020-03-26 23:48:35
US,North Carolina,Halifax,-77.6556109,36.25669272,0,0,0,2020-03-26 23:48:35
US,Virginia,Halifax,-78.93512622,36.76654925,1,0,0,2020-03-26 23:48:35
US,Georgia,Hall,-83.81896936,34.32207823,21,0,0,2020-03-26 23:48:35
US,Nebraska,Hall,-98.50218293,40.87257079,0,0,0,2020-03-26 23:48:35
US,Texas,Hall,-100.6813852,34.5307555,0,0,0,2020-03-26 23:48:35
US,Tennessee,Hamblen,-83.26586179,36.21990035,2,0,0,2020-03-26 23:48:35
US,Florida,Hamilton,-82.94998918,30.49673973,0,0,0,2020-03-26 23:48:35
US,Illinois,Hamilton,-88.53883373,38.08163641,0,0,0,2020-03-26 23:48:35
US,Indiana,Hamilton,-86.05244729,40.07306535,40,0,0,2020-03-26 23:48:35
US,Iowa,Hamilton,-93.70197703,42.38382428,0,0,0,2020-03-26 23:48:35
US,Kansas,Hamilton,-101.7921066,37.99978709,0,0,0,2020-03-26 23:48:35
US,Nebraska,Hamilton,-98.02099117,40.87349452,0,0,0,2020-03-26 23:48:35
US,New York,Hamilton,-74.49721957,43.66146647,2,0,0,2020-03-26 23:48:35
US,Ohio,Hamilton,-84.54502924,39.19673558,53,0,0,2020-03-26 23:48:35
US,Tennessee,Hamilton,-85.16652245,35.17670231,30,1,0,2020-03-26 23:48:35
US,Texas,Hamilton,-98.11083887,31.70470573,0,0,0,2020-03-26 23:48:35
US,South Dakota,Hamlin,-97.18829593,44.67385954,0,0,0,2020-03-26 23:48:35
US,Massachusetts,Hampden,-72.63235561,42.13440424,55,1,0,2020-03-26 23:48:35
US,Massachusetts,Hampshire,-72.65898478,42.33997957,17,0,0,2020-03-26 23:48:35
US,West Virginia,Hampshire,-78.60826476,39.32103553,0,0,0,2020-03-26 23:48:35
US,South Carolina,Hampton,-81.13845571,32.77419582,0,0,0,2020-03-26 23:48:35
US,Virginia,Hampton,-76.35879121,37.03513786,1,0,0,2020-03-26 23:48:35
US,Georgia,Hancock,-82.99766919,33.2721566,0,0,0,2020-03-26 23:48:35
US,Illinois,Hancock,-91.16313899,40.40423981,0,0,0,2020-03-26 23:48:35
US,Indiana,Hancock,-85.77566351,39.82304555,9,1,0,2020-03-26 23:48:35
US,Iowa,Hancock,-93.73454884,43.08178477,3,0,0,2020-03-26 23:48:35
US,Kentucky,Hancock,-86.78280584,37.83766422,0,0,0,2020-03-26 23:48:35
US,Maine,Hancock,-68.38401854,44.59816444,0,0,0,2020-03-26 23:48:35
US,Mississippi,Hancock,-89.48851033,30.41830223,6,1,0,2020-03-26 23:48:35
US,Ohio,Hancock,-83.66838948,41.00250487,2,0,0,2020-03-26 23:48:35
US,Tennessee,Hancock,-83.22375847,36.52692871,0,0,0,2020-03-26 23:48:35
US,West Virginia,Hancock,-80.57461608,40.51943859,1,0,0,2020-03-26 23:48:35
US,South Dakota,Hand,-99.00386459,44.54708407,0,0,0,2020-03-26 23:48:35
US,Virginia,Hanover,-77.49464673,37.7583355,2,0,0,2020-03-26 23:48:35
US,Texas,Hansford,-101.3545796,36.27743284,0,0,0,2020-03-26 23:48:35
US,South Dakota,Hanson,-97.78715148,43.6746384,0,0,0,2020-03-26 23:48:35
US,Georgia,Haralson,-85.21005667,33.79602175,0,0,0,2020-03-26 23:48:35
US,Florida,Hardee,-81.80956574,27.49293939,0,0,0,2020-03-26 23:48:35
US,Tennessee,Hardeman,-88.99161161,35.20772017,0,0,0,2020-03-26 23:48:35
US,Texas,Hardeman,-99.74632408,34.28944521,0,0,0,2020-03-26 23:48:35
US,Illinois,Hardin,-88.26873022,37.51810645,0,0,0,2020-03-26 23:48:35
US,Iowa,Hardin,-93.23654611,42.38353877,0,0,0,2020-03-26 23:48:35
US,Kentucky,Hardin,-85.96319251,37.6976111,2,0,0,2020-03-26 23:48:35
US,Ohio,Hardin,-83.65929931,40.66015414,0,0,0,2020-03-26 23:48:35
US,Tennessee,Hardin,-88.18593755,35.19732531,1,0,0,2020-03-26 23:48:35
US,Texas,Hardin,-94.38931817,30.33364686,2,0,0,2020-03-26 23:48:35
US,New Mexico,Harding,-103.8220938,35.85751555,0,0,0,2020-03-26 23:48:35
US,South Dakota,Harding,-103.4958629,45.58015551,0,0,0,2020-03-26 23:48:35
US,West Virginia,Hardy,-78.85855301,39.00683177,0,0,0,2020-03-26 23:48:35
US,Maryland,Harford,-76.30775940000002,39.55010644,9,0,0,2020-03-26 23:48:35
US,Kentucky,Harlan,-83.21899516,36.85699301,0,0,0,2020-03-26 23:48:35
US,Nebraska,Harlan,-99.40438879,40.17658508,0,0,0,2020-03-26 23:48:35
US,Oklahoma,Harmon,-99.84741652,34.7440135,0,0,0,2020-03-26 23:48:35
US,North Carolina,Harnett,-78.87243571,35.36731853,11,1,0,2020-03-26 23:48:35
US,Oregon,Harney,-118.9666306,43.06422669,0,0,0,2020-03-26 23:48:35
US,Kansas,Harper,-98.07578384,37.19175361,0,0,0,2020-03-26 23:48:35
US,Oklahoma,Harper,-99.6679804,36.78836519,0,0,0,2020-03-26 23:48:35
US,Georgia,Harris,-84.90538572,32.73709786,1,0,0,2020-03-26 23:48:35
US,Texas,Harris,-95.39339521,29.85864939,203,2,0,2020-03-26 23:48:35
US,Indiana,Harrison,-86.10948271,38.19467379,2,0,0,2020-03-26 23:48:35
US,Iowa,Harrison,-95.81558439,41.68330137,3,0,0,2020-03-26 23:48:35
US,Kentucky,Harrison,-84.32869741,38.44188174,10,0,0,2020-03-26 23:48:35
US,Mississippi,Harrison,-89.12467576,30.51359752,31,0,0,2020-03-26 23:48:35
US,Missouri,Harrison,-93.99222144,40.35570088,0,0,0,2020-03-26 23:48:35
US,Ohio,Harrison,-81.09068544,40.29380509,0,0,0,2020-03-26 23:48:35
US,Texas,Harrison,-94.36934071,32.54935988,1,0,0,2020-03-26 23:48:35
US,West Virginia,Harrison,-80.37919577,39.2853852,3,0,0,2020-03-26 23:48:35
US,Virginia,Harrisonburg,-78.87536254,38.43542574,3,0,0,2020-03-26 23:48:35
US,Georgia,Hart,-82.96567682,34.34626973,0,0,0,2020-03-26 23:48:35
US,Kentucky,Hart,-85.88461055,37.29943898,0,0,0,2020-03-26 23:48:35
US,Connecticut,Hartford,-72.73103891,41.80283011,138,2,0,2020-03-26 23:48:35
US,Texas,Hartley,-102.6029022,35.84008013,0,0,0,2020-03-26 23:48:35
US,Kansas,Harvey,-97.42747573,38.04293782,0,0,0,2020-03-26 23:48:35
US,Kansas,Haskell,-100.8710738,37.5620394,0,0,0,2020-03-26 23:48:35
US,Oklahoma,Haskell,-95.11513306,35.22257600000001,0,0,0,2020-03-26 23:48:35
US,Texas,Haskell,-99.73037358,33.17823584,0,0,0,2020-03-26 23:48:35
US,Hawaii,Hawaii,-155.5210167,19.60121157,4,0,0,2020-03-26 23:48:35
US,Tennessee,Hawkins,-82.94885298,36.44355426,1,0,0,2020-03-26 23:48:35
US,Nebraska,Hayes,-101.0603568,40.52451972,0,0,0,2020-03-26 23:48:35
US,Texas,Hays,-98.02944344,30.05669873,11,0,0,2020-03-26 23:48:35
US,North Carolina,Haywood,-82.98196486,35.55269063,0,0,0,2020-03-26 23:48:35
US,Tennessee,Haywood,-89.28536625,35.58332824,0,0,0,2020-03-26 23:48:35
US,Georgia,Heard,-85.12886832,33.29686567,1,0,0,2020-03-26 23:48:35
US,Texas,Hemphill,-100.2703577,35.83764858,0,0,0,2020-03-26 23:48:35
US,Arkansas,Hempstead,-93.66935133,33.73325583,1,0,0,2020-03-26 23:48:35
US,Illinois,Henderson,-90.92491462,40.81908672,0,0,0,2020-03-26 23:48:35
US,Kentucky,Henderson,-87.57392021,37.79344553,2,0,0,2020-03-26 23:48:35
US,North Carolina,Henderson,-82.4766782,35.33788927,6,0,0,2020-03-26 23:48:35
US,Tennessee,Henderson,-88.38600175,35.65581134,0,0,0,2020-03-26 23:48:35
US,Texas,Henderson,-95.85846587,32.21128872,0,0,0,2020-03-26 23:48:35
US,Indiana,Hendricks,-86.51037283,39.76719009,21,0,0,2020-03-26 23:48:35
US,Florida,Hendry,-81.16469006,26.55386945,0,0,0,2020-03-26 23:48:35
US,Minnesota,Hennepin,-93.47694895,45.00761521,128,0,0,2020-03-26 23:48:35
US,Virginia,Henrico,-77.39326555,37.53460572,21,2,0,2020-03-26 23:48:35
US,Alabama,Henry,-85.24267944,31.51148016,0,0,0,2020-03-26 23:48:35
US,Georgia,Henry,-84.14814659999998,33.4533428,25,0,0,2020-03-26 23:48:35
US,Illinois,Henry,-90.13296166,41.3533994,0,0,0,2020-03-26 23:48:35
US,Indiana,Henry,-85.39625719,39.93029017,0,0,0,2020-03-26 23:48:35
US,Iowa,Henry,-91.54436349,40.98767962,1,0,0,2020-03-26 23:48:35
US,Kentucky,Henry,-85.11587507,38.44942688,0,0,0,2020-03-26 23:48:35
US,Missouri,Henry,-93.79293734,38.38482826,1,0,0,2020-03-26 23:48:35
US,Ohio,Henry,-84.06830637,41.3339642,0,0,0,2020-03-26 23:48:35
US,Tennessee,Henry,-88.30121797,36.33160906,0,0,0,2020-03-26 23:48:35
US,Virginia,Henry,-79.87634026,36.68542395,0,0,0,2020-03-26 23:48:35
US,New York,Herkimer,-74.96145307,43.42034246,7,0,0,2020-03-26 23:48:35
US,Florida,Hernando,-82.42700204,28.55364461,9,0,0,2020-03-26 23:48:35
US,North Carolina,Hertford,-76.98104134,36.3607755,3,0,0,2020-03-26 23:48:35
US,North Dakota,Hettinger,-102.4632417,46.43375068,0,0,0,2020-03-26 23:48:35
US,Kentucky,Hickman,-88.97875928,36.67948079999999,0,0,0,2020-03-26 23:48:35
US,Tennessee,Hickman,-87.47643507,35.80609681,0,0,0,2020-03-26 23:48:35
US,Missouri,Hickory,-93.3203037,37.94163617,0,0,0,2020-03-26 23:48:35
US,New Mexico,Hidalgo,-108.7151824,31.91383467,0,0,0,2020-03-26 23:48:35
US,Texas,Hidalgo,-98.18299696,26.39418217,9,0,0,2020-03-26 23:48:35
US,Ohio,Highland,-83.60331456,39.1839264,1,0,0,2020-03-26 23:48:35
US,Virginia,Highland,-79.56124594,38.35799465,0,0,0,2020-03-26 23:48:35
US,Florida,Highlands,-81.34071957,27.34254618,5,0,0,2020-03-26 23:48:35
US,Montana,Hill,-110.1129252,48.62879827,1,0,0,2020-03-26 23:48:35
US,Texas,Hill,-97.13423143,31.99045053,0,0,0,2020-03-26 23:48:35
US,Florida,Hillsborough,-82.32013172,27.9276559,142,1,0,2020-03-26 23:48:35
US,New Hampshire,Hillsborough,-71.7200253,42.91537785,30,1,0,2020-03-26 23:48:35
US,Michigan,Hillsdale,-84.59312019,41.88753639,5,0,0,2020-03-26 23:48:35
US,Mississippi,Hinds,-90.44435448,32.2656285,43,0,0,2020-03-26 23:48:35
US,Colorado,Hinsdale,-107.3004345,37.82247444,1,0,0,2020-03-26 23:48:35
US,Nebraska,Hitchcock,-101.0416477,40.17609175,0,0,0,2020-03-26 23:48:35
US,Ohio,Hocking,-82.47991446,39.49537927,0,0,0,2020-03-26 23:48:35
US,Texas,Hockley,-102.3431676,33.60771256,5,0,0,2020-03-26 23:48:35
US,Kansas,Hodgeman,-99.89829881,38.08780079,0,0,0,2020-03-26 23:48:35
US,North Carolina,Hoke,-79.23651674,35.01888303,2,0,0,2020-03-26 23:48:35
US,Florida,Holmes,-85.81319222,30.86747479,0,0,0,2020-03-26 23:48:35
US,Mississippi,Holmes,-90.08923538,33.12345854,7,1,0,2020-03-26 23:48:35
US,Ohio,Holmes,-81.92635677,40.56163713,0,0,0,2020-03-26 23:48:35
US,Missouri,Holt,-95.2163888,40.09799248,0,0,0,2020-03-26 23:48:35
US,Nebraska,Holt,-98.78402558,42.45522056,0,0,0,2020-03-26 23:48:35
US,Hawaii,Honolulu,-157.97121819999995,21.45803166,68,0,0,2020-03-26 23:48:35
US,Texas,Hood,-97.83242024,32.42990927,1,0,0,2020-03-26 23:48:35
US,Oregon,Hood River,-121.65520359999998,45.51872811,1,0,0,2020-03-26 23:48:35
US,Nebraska,Hooker,-101.1354293,41.91586243,0,0,0,2020-03-26 23:48:35
US,Alaska,Hoonah-Angoon,-135.64244240000002,58.29307365,0,0,0,2020-03-26 23:48:35
US,Virginia,Hopewell,-77.29754684,37.29186313,0,0,0,2020-03-26 23:48:35
US,Kentucky,Hopkins,-87.54670406,37.30939025,0,0,0,2020-03-26 23:48:35
US,Texas,Hopkins,-95.56351139,33.14875072,1,0,0,2020-03-26 23:48:35
US,South Carolina,Horry,-78.99555293,33.9212828,20,1,0,2020-03-26 23:48:35
US,Arkansas,Hot Spring,-92.95396325,34.31709259,1,0,0,2020-03-26 23:48:35
US,Wyoming,Hot Springs,-108.4423174,43.71930657,0,0,0,2020-03-26 23:48:35
US,Michigan,Houghton,-88.68495385,46.89988536,0,0,0,2020-03-26 23:48:35
US,Alabama,Houston,-85.29939599,31.15197924,3,0,0,2020-03-26 23:48:35
US,Georgia,Houston,-83.66879087,32.45802497,9,0,0,2020-03-26 23:48:35
US,Minnesota,Houston,-91.49143057,43.67129565,0,0,0,2020-03-26 23:48:35
US,Tennessee,Houston,-87.71878828,36.28872054,3,0,0,2020-03-26 23:48:35
US,Texas,Houston,-95.42226208,31.31925973,0,0,0,2020-03-26 23:48:35
US,Arkansas,Howard,-93.9934871,34.09007427,0,0,0,2020-03-26 23:48:35
US,Indiana,Howard,-86.11351892,40.48527731,6,1,0,2020-03-26 23:48:35
US,Iowa,Howard,-92.31702714,43.35671042,0,0,0,2020-03-26 23:48:35
US,Maryland,Howard,-76.93126208,39.25305293,49,0,0,2020-03-26 23:48:35
US,Missouri,Howard,-92.69756691,39.1435761,0,0,0,2020-03-26 23:48:35
US,Nebraska,Howard,-98.5166499,41.2200529,0,0,0,2020-03-26 23:48:35
US,Texas,Howard,-101.4356444,32.30621324,0,0,0,2020-03-26 23:48:35
US,Missouri,Howell,-91.88683935,36.77383887,0,0,0,2020-03-26 23:48:35
US,Minnesota,Hubbard,-94.91693868,47.10778564,0,0,0,2020-03-26 23:48:35
US,New Jersey,Hudson,-74.07515667,40.73766234,441,1,0,2020-03-26 23:48:35
US,Texas,Hudspeth,-105.388178,31.45628381,0,0,0,2020-03-26 23:48:35
US,Colorado,Huerfano,-104.9612585,37.68473101,1,0,0,2020-03-26 23:48:35
US,Oklahoma,Hughes,-96.24921145,35.04912569,0,0,0,2020-03-26 23:48:35
US,South Dakota,Hughes,-99.99661148,44.39091534,1,0,0,2020-03-26 23:48:35
US,California,Humboldt,-123.876044,40.69923009,10,0,0,2020-03-26 23:48:35
US,Iowa,Humboldt,-94.20722537,42.7764426,0,0,0,2020-03-26 23:48:35
US,Nevada,Humboldt,-118.1109427,41.40692186,0,0,0,2020-03-26 23:48:35
US,Mississippi,Humphreys,-90.52252707,33.12825718,1,0,0,2020-03-26 23:48:35
US,Tennessee,Humphreys,-87.77992872,36.03958805,0,0,0,2020-03-26 23:48:35
US,Texas,Hunt,-96.08551032,33.12351514,1,0,0,2020-03-26 23:48:35
US,New Jersey,Hunterdon,-74.91284156,40.56335249,39,0,0,2020-03-26 23:48:35
US,Pennsylvania,Huntingdon,-77.97673273,40.42162652,0,0,0,2020-03-26 23:48:35
US,Indiana,Huntington,-85.48822092,40.82907273,0,0,0,2020-03-26 23:48:35
US,Michigan,Huron,-83.04078453,43.83353985,0,0,0,2020-03-26 23:48:35
US,Ohio,Huron,-82.59867951,41.14651175,3,0,0,2020-03-26 23:48:35
US,South Dakota,Hutchinson,-97.75536441,43.33449012,0,0,0,2020-03-26 23:48:35
US,Texas,Hutchinson,-101.3546643,35.84006574,0,0,0,2020-03-26 23:48:35
US,North Carolina,Hyde,-76.15180542,35.42017674,1,0,0,2020-03-26 23:48:35
US,South Dakota,Hyde,-99.48572582,44.54747703,0,0,0,2020-03-26 23:48:35
US,Louisiana,Iberia,-91.75871777,29.86803617,3,0,0,2020-03-26 23:48:35
US,Louisiana,Iberville,-91.3499598,30.25734305,17,1,0,2020-03-26 23:48:35
US,Iowa,Ida,-95.51355387,42.38696136,0,0,0,2020-03-26 23:48:35
US,Idaho,Idaho,-115.4634436,45.84721541,1,0,0,2020-03-26 23:48:35
US,California,Imperial,-115.3669042,33.0393082,9,0,0,2020-03-26 23:48:35
US,Arkansas,Independence,-91.57001641,35.74242707,3,0,0,2020-03-26 23:48:35
US,Florida,Indian River,-80.60556721,27.69308961,13,0,0,2020-03-26 23:48:35
US,Pennsylvania,Indiana,-79.08963285,40.65241041,1,0,0,2020-03-26 23:48:35
US,Michigan,Ingham,-84.37472069,42.59716886,22,0,0,2020-03-26 23:48:35
US,California,Inyo,-117.41119779999998,36.51112084,2,0,0,2020-03-26 23:48:35
US,Michigan,Ionia,-85.07413319,42.94502238,2,0,0,2020-03-26 23:48:35
US,Michigan,Iosco,-83.63484895,44.35486835,1,0,0,2020-03-26 23:48:35
US,Iowa,Iowa,-92.0643373,41.68630265,0,0,0,2020-03-26 23:48:35
US,Wisconsin,Iowa,-90.13469017,43.00050278,3,0,0,2020-03-26 23:48:35
US,North Carolina,Iredell,-80.8743128,35.80950511,13,0,0,2020-03-26 23:48:35
US,Texas,Irion,-100.982439,31.30375559,0,0,0,2020-03-26 23:48:35
US,Michigan,Iron,-88.53136251,46.20974132,0,0,0,2020-03-26 23:48:35
US,Missouri,Iron,-90.7735296,37.55487945,0,0,0,2020-03-26 23:48:35
US,Utah,Iron,-113.2897381,37.85903620000001,0,0,0,2020-03-26 23:48:35
US,Wisconsin,Iron,-90.24295041,46.26302338,0,0,0,2020-03-26 23:48:35
US,Illinois,Iroquois,-87.82466784,40.74717633,0,0,0,2020-03-26 23:48:35
US,Georgia,Irwin,-83.27501387,31.60213036,2,0,0,2020-03-26 23:48:35
US,Michigan,Isabella,-84.84664923,43.64060976,3,0,0,2020-03-26 23:48:35
US,Minnesota,Isanti,-93.29487636,45.56181234,0,0,0,2020-03-26 23:48:35
US,Washington,Island,-122.5216407,48.14713305,64,1,0,2020-03-26 23:48:35
US,Virginia,Isle of Wight,-76.70842863,36.90579348,2,0,0,2020-03-26 23:48:35
US,Mississippi,Issaquena,-90.97392828,32.72531359,0,0,0,2020-03-26 23:48:35
US,Minnesota,Itasca,-93.63092229,47.51009045,0,0,0,2020-03-26 23:48:35
US,Mississippi,Itawamba,-88.3606733,34.27993475,3,0,0,2020-03-26 23:48:35
US,Arkansas,Izard,-91.90847954,36.09604046,0,0,0,2020-03-26 23:48:35
US,Texas,Jack,-98.17283469,33.23377248,0,0,0,2020-03-26 23:48:35
US,Alabama,Jackson,-85.99750489,34.78144169,4,1,0,2020-03-26 23:48:35
US,Arkansas,Jackson,-91.21494602,35.59802983,0,0,0,2020-03-26 23:48:35
US,Colorado,Jackson,-106.3408905,40.66593870000001,0,0,0,2020-03-26 23:48:35
US,Florida,Jackson,-85.21500423,30.7954597,1,0,0,2020-03-26 23:48:35
US,Georgia,Jackson,-83.56814788,34.13794553,1,0,0,2020-03-26 23:48:35
US,Illinois,Jackson,-89.38232563,37.78595185,1,0,0,2020-03-26 23:48:35
US,Indiana,Jackson,-86.03851889,38.90915820000001,2,0,0,2020-03-26 23:48:35
US,Iowa,Jackson,-90.57354837,42.17178824,0,0,0,2020-03-26 23:48:35
US,Kansas,Jackson,-95.79356799,39.41673394,1,0,0,2020-03-26 23:48:35
US,Kentucky,Jackson,-83.99825483,37.41866422,0,0,0,2020-03-26 23:48:35
US,Louisiana,Jackson,-92.55692092,32.30251776,1,0,0,2020-03-26 23:48:35
US,Michigan,Jackson,-84.42258681,42.24807035,17,0,0,2020-03-26 23:48:35
US,Minnesota,Jackson,-95.15398258,43.67423373,1,0,0,2020-03-26 23:48:35
US,Mississippi,Jackson,-88.64184064,30.54020656,16,0,0,2020-03-26 23:48:35
US,Missouri,Jackson,-94.34724536,39.01002188,31,1,0,2020-03-26 23:48:35
US,North Carolina,Jackson,-83.14093385,35.28814273,1,0,0,2020-03-26 23:48:35
US,Ohio,Jackson,-82.61818559999998,39.01914254,0,0,0,2020-03-26 23:48:35
US,Oklahoma,Jackson,-99.41138784,34.58781741,1,0,0,2020-03-26 23:48:35
US,Oregon,Jackson,-122.7289309,42.43201126,4,0,0,2020-03-26 23:48:35
